"","Open_Statu","School_ID","Short_Desc","Short_Name","UnitName","Address","Zip","Network","Governance","School_Typ","Grade_Cat","Grades","Grades_Sho","Boundary","BoundaryGr","BndGrShort","Lat","Long","Phone","GeoNetwork","COMMAREA","WARD","SchoolId"
"1","OPEN","400009","Academy for Global Citizenship ES","GLOBAL CITIZENSHIP","Academy for Global Citizenship Elementary School","4647 W 47TH ST","60632","Charter","Charter","Traditional","ES","K, 1, 2, 3, 4, 5, 6, 7, 8","K-8","Citywide",,,41.80757851,-87.74009744,"(773)582-1100","8","GARFIELD RIDGE","14",400009
"2","OPEN","400011","Alain Locke Charter ES","LOCKE A","Alain Locke Charter Elementary Academy","3141 W JACKSON BLVD","60612","Charter","Charter","Traditional","ES","K, 1, 2, 3, 4, 5, 6, 7, 8","K-8","Citywide",,,41.87724835,-87.70523453,"(773)265-7232","5","EAST GARFIELD PARK","28",400011
"3","OPEN","400013","ASPIRA Charter HS - Early College","ASPIRA - EARLY COLLEGE HS","ASPIRA Charter - Early College","3986 W BARRY AVE","60618","Charter","Charter","Traditional","HS","9, 10, 11, 12","9-12","Citywide",,,41.93729829,-87.72709566,"(773)252-0970","4","AVONDALE","30",400013
"4","OPEN","400017","ASPIRA Charter MS - Haugan","ASPIRA - HAUGAN","ASPIRA Charter - Haugan Campus","3729 W LELAND AVE","60625","Charter","Charter","Traditional","ES","6, 7, 8","6-8","Charter-Attendance Area School","6, 7, 8","6-8",41.96640567,-87.72182467,"(773)252-0970","1","ALBANY PARK","35",400017
"5","OPEN","400021","Catalyst ES - Circle Rock","CATALYST - CIRCLE ROCK","Catalyst Elementary School - Circle Rock","5608 W WASHINGTON BLVD","60644","Charter","Charter","Traditional","ES","K, 1, 2, 3, 4, 5, 6, 7, 8","K-8","Citywide",,,41.88232222,-87.76532198,"(773)945-5025","3","AUSTIN","29",400021
"6","OPEN","400022","Chicago HS for the Arts","CHIARTS HS","Chicago High School for the Arts","2714 W AUGUSTA BLVD","60622","Contract","Contract","Traditional","HS","9, 10, 11, 12","9-12","Citywide",,,41.89937657,-87.69494501,"(773)534-9710","5","WEST TOWN","26",400022
"7","OPEN","400023","Chicago Intl Charter ES - Avalon / South Shore","CICS - AVALON/SOUTH SHORE","Chicago Intl Charter - Avalon / South Shore","1501 E 83RD PL","60619","Charter","Charter","Traditional","ES","K, 1, 2, 3, 4, 5, 6, 7, 8","K-8","Citywide",,,41.74317942,-87.58792764,"(773)721-0858","12","AVALON PARK","8",400023
"8","OPEN","400024","Chicago Intl Charter ES - Basil","CICS - BASIL","Chicago Intl Charter - Basil","1816 W GARFIELD BLVD","60609","Charter","Charter","Traditional","ES","K, 1, 2, 3, 4, 5, 6, 7, 8","K-8","Citywide",,,41.79404286,-87.67024266,"(773)778-9455","11","NEW CITY","16",400024
"9","OPEN","400025","Chicago Intl Charter ES - Bucktown","CICS - BUCKTOWN","Chicago Intl Charter - Bucktown","2235 N HAMILTON AVE","60647","Charter","Charter","Traditional","ES","K, 1, 2, 3, 4, 5, 6, 7, 8","K-8","Citywide",,,41.92241463,-87.68135796,"(773)645-3321","6","LOGAN SQUARE","32",400025
"10","OPEN","400026","Chicago Intl Charter ES - Loomis","CICS - LOOMIS","Chicago Intl Charter - Loomis Primary","9535 S LOOMIS ST","60643","Charter","Charter","Traditional","ES","K, 1, 2","K-2","Citywide",,,41.72024642,-87.65756106,"(773)429-8955","11","WASHINGTON HEIGHTS","21",400026
"11","OPEN","400027","Chicago Intl Charter ES - Irving Park","CICS - IRVING PARK","Chicago Intl Charter - Irving Park","3820 N SPAULDING AVE","60618","Charter","Charter","Traditional","ES","K, 1, 2, 3, 4, 5, 6, 7, 8","K-8","Citywide",,,41.95089128,-87.71049243,"(773)433-5000","1","IRVING PARK","33",400027
"12","OPEN","400028","Chicago Intl Charter ES - Prairie","CICS - PRAIRIE","Chicago Intl Charter - Prairie","11530 S PRAIRIE AVE","60628","Charter","Charter","Traditional","ES","K, 1, 2, 3, 4, 5, 6, 7, 8","K-8","Citywide",,,41.68443304,-87.61688838,"(773)928-0480","13","WEST PULLMAN","9",400028
"13","OPEN","400029","Chicago Intl Charter ES - Washington Park","CICS - WASHINGTON PARK","Chicago Intl Charter - Washington Park","110 E 61ST ST","60637","Charter","Charter","Traditional","ES","K, 1, 2, 3, 4, 5, 6, 7, 8","K-8","Citywide",,,41.7841264,-87.62126075,"(773)347-0200","9","WASHINGTON PARK","20",400029
"14","OPEN","400030","Chicago Intl Charter ES - West Belden","CICS - WEST BELDEN","Chicago Intl Charter - West Belden","2245 N MCVICKER AVE","60639","Charter","Charter","Traditional","ES","K, 1, 2, 3, 4, 5, 6, 7, 8","K-8","Citywide",,,41.9216875,-87.77674854,"(773)637-9430","3","BELMONT CRAGIN","36",400030
"15","OPEN","400031","Chicago Intl Charter ES - Wrightwood","CICS - WRIGHTWOOD","Chicago Intl Charter - Wrightwood","8130 S CALIFORNIA AVE","60652","Charter","Charter","Traditional","ES","K, 1, 2, 3, 4, 5, 6, 7, 8","K-8","Charter-Attendance Area School","K, 1, 2, 3, 4, 5, 6, 7, 8","K-8",41.74536545,-87.6926144,"(773)434-4575","10","ASHBURN","18",400031
"16","OPEN","400032","Chicago Intl Charter HS - Ellison","CICS - ELLISON HS","Chicago Intl Charter - Ralph Ellison","1817 W 80TH ST","60620","Charter","Charter","Traditional","HS","9, 10, 11, 12","9-12","Charter-Attendance Area School","9, 10, 11, 12","9-12",41.74838241,-87.66897964,"(773)478-4434","11","AUBURN GRESHAM","17",400032
"17","OPEN","400033","Chicago Intl Charter HS - Longwood","CICS - LONGWOOD","Chicago Intl Charter - Longwood","1309 W 95TH ST","60643","Charter","Charter","Traditional","HS","3, 4, 5, 6, 7, 8, 9, 10, 11, 12","3-12","Citywide",,,41.72122143,-87.65576813,"(773)238-5330","11","WASHINGTON HEIGHTS","21",400033
"18","OPEN","400034","Chicago Intl Charter HS - Northtown","CICS - NORTHTOWN HS","Chicago Intl Charter - Northtown","3900 W PETERSON AVE","60659","Charter","Charter","Traditional","HS","9, 10, 11, 12","9-12","Charter-Attendance Area School","9, 10, 11, 12","9-12",41.99024501,-87.72650426,"(773)478-3655","1","NORTH PARK","39",400034
"19","OPEN","400035","Chicago Math and Science Academy HS","CHICAGO MATH & SCIENCE HS","Chicago Math and Science Academy High School","7212 N CLARK ST","60626","Charter","Charter","Traditional","HS","6, 7, 8, 9, 10, 11, 12","6-12","Citywide",,,42.01303149,-87.67481842,"(773)761-8960","2","ROGERS PARK","49",400035
"20","OPEN","400036","Chicago Virtual Charter HS","CHICAGO VIRTUAL","Chicago Virtual Charter High School","38 S PEORIA ST","60607","Charter","Charter","Traditional","HS","K, 1, 2, 3, 4, 5, 6, 7, 8, 9, 10, 11, 12","K-12","Citywide",,,41.88055011,-87.64977248,"(312)267-4486","6","NEAR WEST SIDE","25",400036
"21","OPEN","400039","Erie Charter ES","ERIE","Erie Elementary Charter School","1405 N WASHTENAW AVE","60622","Charter","Charter","Traditional","ES","K, 1, 2, 3, 4, 5, 6, 7, 8","K-8","Citywide",,,41.90677064,-87.69436445,"(773)486-7161","5","WEST TOWN","1",400039
"22","OPEN","400040","Frazier Preparatory Academy","FRAZIER CHARTER","Frazier Preparatory Academy Elementary School","3711 W DOUGLAS BLVD","60624","Charter","Charter","Traditional","ES","K, 1, 2, 3, 4, 5, 6, 7, 8","K-8","Citywide",,,41.86207686,-87.71764198,"(773)521-1303","5","NORTH LAWNDALE","24",400040
"23","OPEN","400043","Hope Learning Academy","HOPE LEARNING ACADEMY","Hope Institute Learning Academy","1628 W WASHINGTON","60612","Contract","Contract","Traditional","ES","K, 1, 2, 3, 4, 5","K-5","Citywide",,,41.88336203,-87.66807695,"(773)534-7405","6","NEAR WEST SIDE","27",400043
"24","OPEN","400044","KIPP Ascend Charter School","KIPP - ASCEND","KIPP Ascend Academy Charter Elementary School","1616 S AVERS AVE","60623","Charter","Charter","Traditional","ES","K, 1, 2, 3, 4, 5, 6, 7, 8","K-8","Citywide",,,41.85836974,-87.72107065,"(773)521-4399","5","NORTH LAWNDALE","24",400044
"25","OPEN","400045","Kwame Nkrumah Academy Elementary School","NKRUMAH","Kwame Nkrumah Academy Elementary School","314 W 108TH ST","60628","Charter","Charter","Traditional","ES","K, 1, 2, 3, 4, 5, 6, 7, 8","K-8","Citywide",,,41.69804049,-87.63105815,"(773)568-8000","13","ROSELAND","34",400045
"26","OPEN","400046","L.E.A.R.N. Charter School - Romano Butler Campus","LEARN - BUTLER","LEARN Charter ES - Romano Butler Campus","1132 S HOMAN AVE","60624","Charter","Charter","Traditional","ES","K, 1, 2, 3, 4, 5, 6, 7, 8","K-8","Citywide",,,41.86727271,-87.71067948,"(773)722-0200","5","NORTH LAWNDALE","24",400046
"27","OPEN","400047","L.E.A.R.N. Charter ES - Charles and Dorothy Campbell","LEARN - CAMPBELL","LEARN Charter ES - Charles and Dorothy Campbell","212 S FRANCISCO AVE","60612","Charter","Charter","Traditional","ES","K, 1, 2, 3, 4, 5, 6","K-6","Citywide",,,41.87786063,-87.69873872,"(773)826-0370","5","EAST GARFIELD PARK","27",400047
"28","OPEN","400048","L.E.A.R.N. Charter School - Excel Campus","LEARN - EXCEL","LEARN Charter ES - Excel","3021 W CARROLL AVE","60612","Charter","Charter","Traditional","ES","K, 1, 2, 3, 4, 5, 6","K-6","Citywide",,,41.88731992,-87.70207089,"(773)584-4300","5","EAST GARFIELD PARK","27",400048
"29","OPEN","400049","Legacy Charter ES","LEGACY","Legacy Charter Elementary School","3318 W OGDEN AVE","60623","Charter","Charter","Traditional","ES","K, 1, 2, 3, 4, 5, 6, 7, 8","K-8","Citywide",,,41.85696245,-87.70850768,"(773)542-1640","5","NORTH LAWNDALE","24",400049
"30","OPEN","400050","Namaste Charter ES","NAMASTE","Namaste Charter Elementary School","3737 S PAULINA ST","60609","Charter","Charter","Traditional","ES","K, 1, 2, 3, 4, 5, 6, 7, 8","K-8","Citywide",,,41.82569976,-87.66772404,"(773)715-9558","8","MCKINLEY PARK","12",400050
"31","OPEN","400051","Noble Charter HS - Noble","NOBLE - NOBLE HS","Noble Street Charter - Noble Street College Prep","1010 N NOBLE ST","60642","Charter","Charter","Traditional","HS","9, 10, 11, 12","9-12","Citywide",,,41.90019052,-87.66262778,"(773)862-1449","6","WEST TOWN","2",400051
"32","OPEN","400052","Noble Charter HS - Comer","NOBLE - COMER","Noble Street Charter - Gary Comer College Prep","7131 SOUTH CHICAGO AVE","60619","Charter","Charter","Traditional","HS","6, 7, 8, 9, 10, 11, 12","6-12","Charter-Attendance Area School","9, 10, 11, 12","9-12",41.76525228,-87.60416375,"(773)729-3969","12","GREATER GRAND CROSSING","5",400052
"33","OPEN","400053","Noble Charter HS - Golder","NOBLE - GOLDER HS","Noble Street Charter - Golder College Prep","1454 W SUPERIOR ST","60642","Charter","Charter","Traditional","HS","9, 10, 11, 12","9-12","Citywide",,,41.89528219,-87.664483,"(312)265-9925","6","WEST TOWN","27",400053
"34","OPEN","400054","Noble Charter - Pritzker College Prep","NOBLE - PRITZKER HS","Noble Street Charter - Pritzker College Prep","4131 W CORTLAND AVE","60639","Charter","Charter","Traditional","HS","9, 10, 11, 12","9-12","Citywide",,,41.91521411,-87.73012671,"(773)394-2848","4","HERMOSA","35",400054
"35","OPEN","400055","Noble Charter HS - Rauner","NOBLE - RAUNER HS","Noble Street Charter - Rauner College Prep","1337 W OHIO ST","60642","Charter","Charter","Traditional","HS","9, 10, 11, 12","9-12","Citywide",,,41.89242501,-87.66085887,"(312)226-5345","6","WEST TOWN","1",400055
"36","OPEN","400056","Noble Charter HS - Rowe-Clark","NOBLE - ROWE CLARK HS","Noble Street Charter - Rowe-Clark Math & Sci Acad","3645 W CHICAGO AVE","60651","Charter","Charter","Traditional","HS","9, 10, 11, 12","9-12","Citywide",,,41.89536226,-87.71804677,"(773)242-2212","5","HUMBOLDT PARK","27",400056
"37","OPEN","400057","Noble Charter HS - UIC","NOBLE - UIC HS","Noble Street Charter - UIC College Prep","1231 S DAMEN AVE","60608","Charter","Charter","Traditional","HS","9, 10, 11, 12","9-12","Charter-Attendance Area School","9, 10, 11, 12","9-12",41.86581741,-87.67611093,"(312)768-4858","6","NEAR WEST SIDE","28",400057
"38","OPEN","400058","North Lawndale Charter HS - Christiana","NORTH LAWNDALE - CHRISTIANA HS","North Lawndale College Prep Charter - Christiana","1615 S. CHRISTIANA AVE.","60623","Charter","Charter","Traditional","HS","9, 10, 11, 12","9-12","Citywide",,,41.85856355,-87.70898711,"(773)542-1490","5","NORTH LAWNDALE","24",400058
"39","OPEN","400059","North Lawndale Charter HS - Collins","NORTH LAWNDALE - COLLINS HS","North Lawndale College Prep Charter - Collins","1313 S SACRAMENTO DR","60623","Charter","Charter","Traditional","HS","9, 10, 11, 12","9-12","Citywide",,,41.86414584,-87.7006806,"(773)542-6766","5","NORTH LAWNDALE","24",400059
"40","OPEN","400060","Asian Human Services - Passages Charter School","AHS - PASSAGES","Asian Human Services - Passages Charter School","1643 W BRYN MAWR AVE","60660","Charter","Charter","Traditional","ES","K, 1, 2, 3, 4, 5, 6, 7, 8","K-8","Citywide",,,41.98337144,-87.67116042,"(773)433-3530","2","EDGEWATER","40",400060
"41","OPEN","400061","Perspectives Charter Leadership Academy HS","PERSPECTIVES - LEADERSHIP HS","Perspectives Charter Leadership Academy HS","8131 S MAY ST","60620","Charter","Charter","Traditional","HS","6, 7, 8, 9, 10, 11, 12","6-12","Citywide",,,41.74596083,-87.65204509,"(773)358-6100","11","AUBURN GRESHAM","21",400061
"42","OPEN","400062","Perspectives Charter - HS of Technology","PERSPECTIVES - TECH HS","Perspectives Charter School - High School of Technology","8131 S MAY ST","60620","Charter","Charter","Traditional","HS","9, 10, 11, 12","9-12","Citywide",,,41.74594902,-87.65065702,"(773)358-6120","11","AUBURN GRESHAM","21",400062
"43","OPEN","400064","Perspectives Charter HS - Joslin","PERSPECTIVES - JOSLIN HS","Perspectives Charter - Rodney D Joslin","1930 S ARCHER AVE","60616","Charter","Charter","Traditional","HS","6, 7, 8, 9, 10, 11, 12","6-12","Citywide",,,41.85599911,-87.6285309,"(312)225-7400","6","NEAR SOUTH SIDE","3",400064
"44","OPEN","400066","Perspectives Charter HS - IIT Math and Science","PERSPECTIVES - MATH & SCI HS","Perspectives Charter - IIT Math & Science Academy","3663 S WABASH AVE","60653","Charter","Charter","Traditional","HS","6, 7, 8, 9, 10, 11, 12","6-12","Citywide",,,41.82778386,-87.62478772,"(773)358-6800","9","DOUGLAS","3",400066
"45","OPEN","400068","Plato Learning Academy ES","PLATO","Plato Learning Academy Elementary School","5545 W HARRISON ST","60644","Contract","Contract","Traditional","ES","K, 1, 2, 3, 4, 5, 6, 7, 8","K-8","Citywide",,,41.87276043,-87.76333693,"(773)413-3090","3","AUSTIN","29",400068
"46","OPEN","400069","Polaris Charter Academy ES","POLARIS","Polaris Charter Academy Elementary School","620 N SAWYER AVE","60624","Charter","Charter","Traditional","ES","K, 1, 2, 3, 4, 5, 6, 7, 8","K-8","Citywide",,,41.89255017,-87.70779647,"(773)534-0820","5","HUMBOLDT PARK","27",400069
"47","OPEN","400071","Providence Englewood Charter ES - Bunche","PROVIDENCE ENGLEWOOD","Providence Englewood Charter - Bunche","6515 S ASHLAND AVE","60636","Charter","Charter","Traditional","ES","K, 1, 2, 3, 4, 5, 6, 7, 8","K-8","Citywide",,,41.77536737,-87.66399583,"(773)434-0202","11","WEST ENGLEWOOD","16",400071
"48","OPEN","400075","Univ of Chicago Charter ES - Donoghue","U OF C - DONOGHUE","University of Chicago Charter - Donoghue","707 E 37TH ST","60653","Charter","Charter","Traditional","ES","PK, K, 1, 2, 3, 4, 5","PK-5","Charter-Attendance Area School","PK, K, 1, 2, 3, 4, 5","PK-5",41.82772608,-87.60850078,"(773)285-5301","9","OAKLAND","4",400075
"49","OPEN","400076","Univ of Chicago Charter ES - NKO","U OF C - NKO","University of Chicago Charter - NKO","1119 E 46TH ST","60653","Charter","Charter","Traditional","ES","PK, K, 1, 2, 3, 4, 5","PK-5","Citywide",,,41.81118287,-87.59878627,"(773)536-2399","9","KENWOOD","4",400076
"50","OPEN","400077","Univ of Chicago Charter HS - Woodlawn","U OF C - WOODLAWN HS","University of Chicago Charter - Woodlawn","6300 S UNIVERSITY AVE","60637","Charter","Charter","Traditional","HS","6, 7, 8, 9, 10, 11, 12","6-12","Charter-Attendance Area School","6, 7, 8, 9, 10, 11, 12","6-12",41.78041191,-87.59737972,"(773)752-8101","9","WOODLAWN","20",400077
"51","OPEN","400078","Univ of Chicago Charter MS - Woodson","U OF C - WOODSON","University of Chicago Charter - Carter G Woodson","4444 S EVANS AVE","60653","Charter","Charter","Traditional","ES","8","8","Charter-Attendance Area School","8","7-8",41.8135473,-87.60842562,"(773)624-0700","9","GRAND BOULEVARD","3",400078
"52","OPEN","400079","Acero Charter School - SPC Daniel Zizumbo","ACERO - ZIZUMBO","Acero Charter School Network - SPC Daniel Zizumbo","4248 W 47TH ST","60632","Charter","Charter","Traditional","ES","K, 1, 2, 3, 4, 5, 6, 7, 8","K-8","Citywide",,,41.81013479,-87.73049512,"(773)579-3470","8","ARCHER HEIGHTS","14",400079
"53","OPEN","400080","Acero Charter School - PFC Omar E. Torres","ACERO - TORRES","Acero Charter School Network - PFC Omar E. Torres","4248 W 47TH ST","60632","Charter","Charter","Traditional","ES","K, 1, 2, 3, 4, 5, 6, 7, 8","K-8","Citywide",,,41.80819981,-87.73045044,"(773)579-3475","8","ARCHER HEIGHTS","14",400080
"54","OPEN","400081","Acero Charter School - Bartolomé de las Casas","ACERO - DE LAS CASAS","Acero Charter School Network - Bartolomé de las Casas","1641 W 16TH ST","60608","Charter","Charter","Traditional","ES","K, 1, 2, 3, 4, 5, 6, 7, 8","K-8","Citywide",,,41.85950401,-87.66794917,"(312)432-3224","7","LOWER WEST SIDE","25",400081
"55","OPEN","400082","Acero Charter School - Carlos Fuentes","ACERO - FUENTES","Acero Charter School Network - Carlos Fuentes","2845 W BARRY AVE","60618","Charter","Charter","Traditional","ES","K, 1, 2, 3, 4, 5, 6, 7, 8","K-8","Charter-Attendance Area School","K, 1, 2, 3, 4, 5, 6, 7, 8","K-8",41.93747578,-87.69959365,"(773)279-9826","4","AVONDALE","33",400082
"56","OPEN","400083","Acero Charter School - Octavio Paz Campus","ACERO - PAZ","Acero Charter School Network - Octavio Paz Campus","2651 W 23RD ST","60608","Charter","Charter","Traditional","ES","K, 1, 2, 3, 4, 5, 6, 7, 8","K-8","Citywide",,,41.85003541,-87.6925509,"(773)890-1054","7","SOUTH LAWNDALE","24",400083
"57","OPEN","400084","Acero Charter School - Rufino Tamayo","ACERO - TAMAYO","Acero Charter School Network - Rufino Tamayo","5135 S CALIFORNIA AVE","60632","Charter","Charter","Traditional","ES","K, 1, 2, 3, 4, 5, 6, 7, 8","K-8","Charter-Attendance Area School","K, 1, 2, 3, 4, 5, 6, 7, 8","K-8",41.79993019,-87.69386164,"(773)434-6355","8","GAGE PARK","14",400084
"58","OPEN","400085","Acero Charter School - Major Hector P. Garcia MD","ACERO - GARCIA HS","Acero Charter School Network - Major Hector P. Garcia MD","4248 W 47TH ST","60632","Charter","Charter","Traditional","HS","9, 10, 11, 12","9-12","Citywide",,,41.80917079,-87.73046685,"(773)579-3480","8","ARCHER HEIGHTS","14",400085
"59","OPEN","400086","Urban Prep Charter HS - Englewood","URBAN PREP - ENGLEWOOD HS","Urban Prep Acad for Young Men Charter - Englewood","6201 S STEWART AVE","60621","Charter","Charter","Traditional","HS","9, 10, 11, 12","9-12","Citywide",,,41.78149782,-87.63435669,"(773)535-9724","11","ENGLEWOOD","20",400086
"60","OPEN","400087","Young Women's Leadership Charter HS","YOUNG WOMENS HS","Young Women's Leadership Charter High School","2641 S CALUMET AVE","60616","Charter","Charter","Traditional","HS","9, 10, 11, 12","9-12","Citywide",,,41.84454381,-87.6187238,"(312)949-9400","9","DOUGLAS","4",400087
"61","OPEN","400089","Acero Charter School - Officer Donald J. Marquez","ACERO - MARQUEZ","Acero Charter School Network - Officer Donald J. Marquez","2916 W 47TH ST","60632","Charter","Charter","Traditional","ES","K, 1, 2, 3, 4, 5, 6, 7, 8","K-8","Citywide",,,41.80830882,-87.6973941,"(773)321-2200","8","BRIGHTON PARK","15",400089
"62","OPEN","400091","Chicago Technology Academy High School","CHICAGO TECH HS","Chicago Technology Academy High School","1301 W 14TH ST","60608","Contract","Contract","Traditional","HS","9, 10, 11, 12","9-12","Citywide",,,41.86330141,-87.6590948,"(773)534-7755","6","NEAR WEST SIDE","25",400091
"63","OPEN","400092","Chicago Intl Charter ES - Lloyd Bond","CICS - BOND","Chicago Intl Charter - Lloyd Bond","13300 S LANGLEY AVE","60827","Charter","Charter","Traditional","ES","K, 1, 2, 3, 4, 5, 6","K-6","Citywide",,,41.65366345,-87.6050391,"(773)468-1300","13","RIVERDALE","9",400092
"64","OPEN","400094","EPIC Academy HS","EPIC HS","EPIC Academy High School","8255 S HOUSTON AVE","60617","Charter","Charter","Traditional","HS","9, 10, 11, 12","9-12","Citywide",,,41.74484911,-87.55022237,"(773)535-7930","12","SOUTH CHICAGO","7",400094
"65","OPEN","400096","Rowe Elementary School","ROWE","Rowe Elementary School","1424 N CLEAVER ST","60642","Charter","Charter","Traditional","ES","K, 1, 2, 3, 4, 5, 6, 7, 8","K-8","Citywide",,,41.90779718,-87.66407247,"(773)445-5870","6","WEST TOWN","2",400096
"66","OPEN","400097","Noble Charter HS - Chicago Bulls","NOBLE - BULLS HS","Noble Street Charter - Chicago Bulls College","2040 W ADAMS ST","60612","Charter","Charter","Traditional","HS","9, 10, 11, 12","9-12","Charter-Attendance Area School","9, 10, 11, 12","9-12",41.87880881,-87.67819526,"(773)534-7599","6","NEAR WEST SIDE","27",400097
"67","OPEN","400098","Noble Charter HS - Muchin","NOBLE - MUCHIN HS","Noble Street Charter - Muchin College Prep","1 N STATE ST","60602","Charter","Charter","Traditional","HS","9, 10, 11, 12","9-12","Citywide",,,41.88274026,-87.62633828,"(312)445-4680","6","LOOP","42",400098
"68","OPEN","400101","Acero Charter School - Sandra Cisneros","ACERO - CISNEROS","Acero Charter School Network - Sandra Cisneros","2744 W PERSHING RD","60632","Charter","Charter","Traditional","ES","K, 1, 2, 3, 4, 5, 6, 7, 8","K-8","Citywide",,,41.82288374,-87.69399616,"(773)376-8830","8","BRIGHTON PARK","12",400101
"69","OPEN","400102","Urban Prep Academy - West","URBAN PREP - WEST HS","Urban Prep Academy for Young Men - West","1326 W 14TH PL","60608","Charter","Charter","Traditional","HS","9, 10, 11, 12","9-12","Citywide",,,41.86254002,-87.66010654,"(773)534-8860","6","NEAR WEST SIDE","25",400102
"70","OPEN","400104","Instituto Health Sciences Career Academy HS","INSTITUTO - HEALTH","Instituto Health Sciences Career Academy HS","2520 S WESTERN AVE","60608","Charter","Charter","Traditional","HS","9, 10, 11, 12","9-12","Citywide",,,41.84596659,-87.68724016,"(773)890-8020","7","LOWER WEST SIDE","25",400104
"71","OPEN","400105","Urban Prep Academy - Bronzeville","URBAN PREP - BRONZEVILLE HS","Urban Prep Academy for Young Men - Bronzeville","521 E 35TH ST","60616","Charter","Charter","Traditional","HS","9, 10, 11, 12","9-12","Citywide",,,41.83111753,-87.61362865,"(773)624-3444","9","DOUGLAS","4",400105
"72","OPEN","400106","Noble CHTR  – Johnson HS","NOBLE - JOHNSON HS","Noble Street Charter School – Johnson HS","6350 S STEWART AVE","60621","Charter","Charter","Traditional","HS","9, 10, 11, 12","9-12","Citywide",,,41.7783695,-87.6351167,"(312)348-1888","11","ENGLEWOOD","20",400106
"73","OPEN","400107","L.E.A.R.N. Charter School - South Chicago Campus","LEARN - SOUTH CHICAGO","LEARN  Charter School-South Chicago Campus","8914 S BUFFALO AVE","60617","Charter","Charter","Traditional","ES","K, 1, 2, 3, 4, 5, 6, 7, 8","K-8","Citywide",,,41.73333313,-87.54557989,"(773)722-8577","12","SOUTH CHICAGO","10",400107
"74","OPEN","400111","L.E.A.R.N. Charter School - Hunter Perkins","LEARN - PERKINS","LEARN Charter School - Hunter Perkins","1700 W 83RD ST","60620","Charter","Charter","Traditional","ES","K, 1, 2, 3, 4, 5, 6, 7","K-7","Citywide",,,41.74312177,-87.66572106,"(773)488-1634","11","AUBURN GRESHAM","21",400111
"75","OPEN","400112","Acero Charter School - Jovita Idár","ACERO - IDAR","Acero Charter School Network - Jovita Idár","5050 S HOMAN AVE","60632","Charter","Charter","Traditional","ES","K, 1, 2, 3, 4, 5, 6, 7, 8","K-8","Citywide",,,41.80104241,-87.70879678,"(312)455-5450","8","GAGE PARK","14",400112
"76","OPEN","400113","Chicago Intl Charter ChicagoQuest North","CICS - CHICAGOQUEST HS","Chicago Intl Charter - Chicago Quest North","1443 N OGDEN AVE","60610","Charter","Charter","Traditional","HS","9, 10, 11, 12","9-12","Charter-Attendance Area School","6, 7, 8, 9","6-9",41.9077968,-87.6455615,"(773)565-2100","4","NEAR NORTH SIDE","27",400113
"77","OPEN","400114","Acero Charter School - Esmeralda Santiago","ACERO - SANTIAGO","Acero Charter School Network - Esmeralda Santiago","2510 W CORTEZ ST","60622","Charter","Charter","Traditional","ES","K, 1, 2, 3, 4, 5, 6, 7, 8","K-8","Citywide",,,41.90034364,-87.68989562,"(312)455-5410","5","WEST TOWN","1",400114
"78","OPEN","400115","Catalyst-Maria Charter ES","CATALYST - MARIA","Catalyst-Maria Charter School","6727 S CALIFORNIA AVE","60629","Charter","Charter","Traditional","ES","K, 1, 2, 3, 4, 5, 6, 7, 8, 9, 10, 11, 12","K-12","Citywide",,,41.77099172,-87.69307532,"(773)993-1770","10","CHICAGO LAWN","17",400115
"79","OPEN","400116","Montessori School of Englewood Charter ES","MONTESSORI ENGLEWOOD","The Montessori School of Englewood Charter","6936 S HERMITAGE AVE","60636","Charter","Charter","Traditional","ES","PK, K, 1, 2, 3, 4, 5, 6, 7, 8","PK-8","Citywide",,,41.76739011,-87.66763901,"(773)535-9255","11","WEST ENGLEWOOD","17",400116
"80","OPEN","400117","Noble Charter School-Hansberry College Prep","NOBLE - HANSBERRY HS","Noble Street Charter School - Silver","8748 S ABERDEEN ST","60620","Charter","Charter","Traditional","HS","9, 10, 11, 12","9-12","Citywide",,,41.73444162,-87.65098673,"(773)729-3400","11","AUBURN GRESHAM","21",400117
"81","OPEN","400118","Noble Charter School- DRW College Prep","NOBLE - DRW HS","Noble Street Charter School - Purple","931 S HOMAN AVE","60624","Charter","Charter","Traditional","HS","9, 10, 11, 12","9-12","Citywide",,,41.86932808,-87.71165423,"(773)893-4500","5","NORTH LAWNDALE","24",400118
"82","OPEN","400119","Legal Prep Charter Academy HS","LEGAL PREP HS","Legal Prep Charter Academy","4319 W WASHINGTON BLVD","60624","Charter","Charter","Traditional","HS","9, 10, 11, 12","9-12","Citywide",,,41.88173276,-87.73377838,"(773)922-7800","5","WEST GARFIELD PARK","28",400119
"83","OPEN","400120","Acero Charter School - Roberto Clemente","ACERO - CLEMENTE","Acero Charter School Network - Roberto Clemente","2050 N NATCHEZ AVE","60707","Charter","Charter","Traditional","ES","K, 1, 2, 3, 4, 5, 6, 7, 8","K-8","Charter-Attendance Area School","K, 1, 2, 3, 4, 5, 6, 7, 8","K-8",41.91795168,-87.78783044,"(312)455-5425","3","BELMONT CRAGIN","29",400120
"84","OPEN","400121","Acero Charter School - Sor Juana Inés de la Cruz","ACERO - DE LA CRUZ","Acero Charter School Network - Sor Juana Inés de la Cruz","7416 N RIDGE BLVD","60645","Charter","Charter","Traditional","ES","K, 1, 2, 3, 4, 5, 6, 7, 8, 9, 10, 11, 12","K-12","Citywide",,,42.01647588,-87.68440568,"(312)455-5442","2","WEST RIDGE","49",400121
"85","OPEN","400123","YCCS-Academy of Scholastic Achievement HS","YCCS - SCHOLASTIC ACHIEVEMENT","YCCS-Academy of Scholastic Achievement HS","4651 W MADISON ST","60644","Options","Charter","Options","HS","10, 11, 12","10-12","Citywide",,,41.88044719,-87.7425389,"(773)921-1315","3","AUSTIN","28",400123
"86","OPEN","400124","YCCS-McKinley Lakeside Leadership Academy Campus","YCCS - MCKINLEY","YCCS-McKinley Lakeside Leadership Academy Campus","2920 S WABASH AVE","60616","Options","Charter","Options","HS","10, 11, 12","10-12","Citywide",,,41.84133117,-87.62533077,"(312)949-5010","9","DOUGLAS","3",400124
"87","OPEN","400125","YCCS-ASPIRA, Antonia Pantoja Alternative HS","YCCS - ASPIRA PANTOJA","YCCS-ASPIRA,Antonia Pantoja Alternative HS","3121 N PULASKI RD","60641","Options","Charter","Options","HS","10, 11, 12","10-12","Citywide",,,41.9381866,-87.72713736,"(773)252-0970","4","AVONDALE","30",400125
"88","OPEN","400126","YCCS-Association House, El Cuarto Ano HS","YCCS - ASSOCIATION HOUSE","YCCS-Association House, El Cuarto Ano HS","1116 N KEDZIE AVE","60651","Options","Charter","Options","HS","10, 11","10-11","Citywide",,,41.90157241,-87.70685988,"(773)772-7170","5","HUMBOLDT PARK","26",400126
"89","OPEN","400127","YCCS-Austin Career Education Center HS","YCCS - AUSTIN CAREER","YCCS-Austin Career Education Center HS","5352 W CHICAGO AVE","60651","Options","Charter","Options","HS","10, 11, 12","10-12","Citywide",,,41.89497639,-87.76022118,"(773)626-6988","3","AUSTIN","37",400127
"90","OPEN","400128","YCCS-CCA Academy HS","YCCS - CCA ACADEMY","YCCS-CCA Academy HS","1231 S PULASKI RD","60623","Options","Charter","Options","HS","10, 11, 12","10-12","Citywide",,,41.86494335,-87.72366217,"(773)762-2272","5","NORTH LAWNDALE","24",400128
"91","OPEN","400129","YCCS-Progressive Leadership Academy HS","YCCS - PROGRESSIVE LEADERSHIP","YCCS-Progressive Leadership Academy HS","6620 S DR MARTIN LUTHER KING JR DR","60637","Options","Charter","Options","HS","10, 11, 12","10-12","Citywide",,,41.77416955,-87.6158421,"(773)363-3837","9","GREATER GRAND CROSSING","20",400129
"92","OPEN","400130","YCCS-Community Youth Development Institute HS","YCCS - YOUTH DEVELOPMENT","YCCS-Community Youth Development Institute HS","7836 S UNION AVE","60620","Options","Charter","Options","HS","10, 11, 12","10-12","Citywide",,,41.75137711,-87.64173119,"(773)224-2273","11","AUBURN GRESHAM","6",400130
"93","OPEN","400131","YCCS-Dr. Pedro Albizu Campos Puerto Rican HS","YCCS - CAMPOS","YCCS-Dr. Pedro Albizu Campos Puerto Rican HS","2739 W DIVISION ST","60622","Options","Charter","Options","HS","10, 11, 12","10-12","Citywide",,,41.9028497,-87.69600602,"(773)342-8022","5","WEST TOWN","26",400131
"94","OPEN","400133","YCCS-Innovations of Arts Integration HS","YCCS - INNOVATIONS","YCCS-Innovations of Arts Integration HS","17 N. STATE ST.","60602","Options","Charter","Options","HS","10, 11, 12","10-12","Citywide",,,41.88304717,-87.62773415,"(312)999-9360","6","LOOP","42",400133
"95","OPEN","400134","YCCS-Jane Addams Alternative HS","YCCS - ADDAMS","YCCS-Jane Addams Alternative HS","1814 S UNION AVE","60616","Options","Charter","Options","HS","10, 11, 12","10-12","Citywide",,,41.85720786,-87.64488798,"(312)563-1748","7","LOWER WEST SIDE","11",400134
"96","OPEN","400135","YCCS-Latino Youth Alternative HS","YCCS - LATINO YOUTH","YCCS-Latino Youth Alternative HS","2001 S CALIFORNIA AVE","60608","Options","Charter","Options","HS","10, 11, 12","10-12","Citywide",,,41.85466466,-87.69543001,"(773)648-2130","7","SOUTH LAWNDALE","12",400135
"97","OPEN","400136","YCCS-Olive Harvey Middle College HS","YCCS - OLIVE HARVEY","YCCS-Olive Harvey Middle College HS","10001 S WOODLAWN AVE","60628","Options","Charter","Options","HS","10, 11","10-11","Citywide",,,41.7129221,-87.5923332,"(773)291-6517","12","PULLMAN","8",400136
"98","OPEN","400137","Little Black Pearl Art and Design Academy","LITTLE BLACK PEARL HS","Little Black Pearl Art and Design Academy","1060 E 47TH ST","60653","Options","Contract","Options","HS","9, 10, 11, 12","9-12","Citywide",,,41.8096955,-87.59933994,"(773)690-5500","9","KENWOOD","4",400137
"99","OPEN","400139","YCCS-Sullivan House Alternative HS","YCCS - SULLIVAN","YCCS-Sullivan House Alternative HS","8164 S SOUTH CHICAGO AVE","60617","Options","Charter","Options","HS","10, 11","10-11","Citywide",,,41.74628657,-87.57849167,"(773)978-8680","12","AVALON PARK","8",400139
"100","OPEN","400141","YCCS-Truman Middle College HS","YCCS - TRUMAN","YCCS-Truman Middle College HS","1145 W WILSON AVE","60640","Options","Charter","Options","HS","10, 11, 12","10-12","Citywide",,,41.96529482,-87.65923929,"(773)907-4840","2","UPTOWN","46",400141
"101","OPEN","400143","YCCS-West Town Academy Alternative HS","YCCS - WEST TOWN","YCCS-West Town Academy Alternative HS","500 N SACRAMENTO BLVD","60612","Options","Charter","Options","HS","10, 11","10-11","Citywide",,,41.89080312,-87.7020528,"(312)563-9044","5","HUMBOLDT PARK","27",400143
"102","OPEN","400144","YCCS-Westside Holistic Leadership Academy HS","YCCS - WESTSIDE HOLISTIC","YCCS-Westside Holistic Leadership Academy HS","4909 W DIVISION ST","60651","Options","Charter","Options","HS","10, 11, 12","10-12","Citywide",,,41.90224003,-87.74881029,"(773)261-0994","3","AUSTIN","37",400144
"103","OPEN","400145","YCCS-Youth Connection Leadership Academy HS","YCCS - YOUTH CONNECTION","YCCS-Youth Connection Leadership Academy HS","3424 S STATE ST","60616","Options","Charter","Options","HS","10, 11, 12","10-12","Citywide",,,41.83207206,-87.62678147,"(312)225-4668","9","DOUGLAS","3",400145
"104","OPEN","400146","KIPP Academy Chicago Campus","KIPP - ACADEMY","KIPP Academy Charter Campus","4818 W OHIO ST","60644","Charter","Charter","Traditional","ES","4, 5, 6, 7, 8","4-8","Citywide",,,41.89181614,-87.74661384,"(773)938-8553","3","AUSTIN","37",400146
"105","OPEN","400147","Chicago Excel Contract Academy","CAMELOT - EXCEL HS","Chicago Excel Academy","1257 W 111TH ST","60643","Options","Contract","Options","HS","9, 10, 11, 12","9-12","Citywide",,,41.69196931,-87.65372654,"(773)629-8379","13","MORGAN PARK","34",400147
"106","OPEN","400164","Instituto Justice and Leadership Acad Charter HS","INSTITUTO - LOZANO HS","Instituto Justice and Leadership Acad Charter HS","2570 S BLUE ISLAND AVE","60608","Options","Charter","Options","HS","9, 10, 11, 12","9-12","Citywide",,,41.84544602,-87.68406494,"(773)890-0055","7","LOWER WEST SIDE","25",400164
"107","OPEN","400149","Acero Charter School - Victoria Soto","ACERO - SOTO HS","Acero Charter School Network - Victoria Soto","5025 S SAINT LOUIS AVE","60632","Charter","Charter","Traditional","HS","8, 9, 10, 11","8-11","Citywide",,,41.80176225,-87.71102498,"(312)455-5446","8","GAGE PARK","14",400149
"108","OPEN","400150","YCCS-Chatham Academy HS","YCCS - CHATHAM","YCCS-Chatham Academy HS","9035 S LANGLEY AVE","60619","Options","Charter","Options","HS","10, 11, 12","10-12","Citywide",,,41.73013138,-87.60697991,"(773)651-1500","12","CHATHAM","8",400150
"109","OPEN","400151","L.E.A.R.N. Charter School - 7th Campus","LEARN - 7","Learn Charter 7 ES","3021 W CARROLL AVE","60612","Charter","Charter","Traditional","ES","K, 1, 2, 3, 4, 5","K-5","Citywide",,,41.88731749,-87.70141739,"(773)584-4300","5","EAST GARFIELD PARK","27",400151
"110","OPEN","400153","Acero Charter School - Brighton Park","ACERO - BRIGHTON PARK","Acero Charter School Network -  Brighton Park
Acero Charter School Network -  Brighton Park
","4420 S FAIRFIELD AVE","60632","Charter","Charter","Traditional","ES","K, 1, 2, 3, 4, 5, 6, 7, 8","K-8","Citywide",,,41.81310945,-87.69323838,"(312)455-5434","8","BRIGHTON PARK","15",400153
"111","OPEN","400156","Noble Charter School- Butler College Prep","NOBLE - BUTLER HS","Noble Street Charter  Crimson HS","821 E 103RD ST","60628","Charter","Charter","Traditional","HS","9, 10, 11","9-11","Citywide",,,41.70666686,-87.60257332,"(773)535-5490","13","PULLMAN","9",400156
"112","OPEN","400157","Noble Charter School- Baker College Prep","NOBLE - BAKER HS","Noble Street Charter Orange HS","2710 E 89TH ST","60617","Charter","Charter","Traditional","HS","9, 10, 11, 12","9-12","Citywide",,,41.73462237,-87.55620144,"(773)535-6460","12","SOUTH CHICAGO","7",400157
"113","OPEN","400159","Christopher House Charter ES","CHRISTOPHER HOUSE","Christopher House Charter ES","5235 W BELDEN AVE","60639","Charter","Charter","Traditional","ES","PK, K, 1, 2, 3, 4, 5, 6","PK-6","Citywide",,,41.92218116,-87.75752153,"(773)922-7542","3","BELMONT CRAGIN","36",400159
"114","OPEN","400161","Chicago Charter Collegiate HS","CHICAGO COLLEGIATE","Chicago Charter Collegiate HS","11816 S INDIANA AVE","60628","Charter","Charter","Traditional","HS","3, 4, 5, 6, 7, 8, 9, 10","3-10","Citywide",,,41.67931844,-87.61796787,"(773)536-9098","13","WEST PULLMAN","9",400161
"115","OPEN","400162","Intrinsic Charter HS","INTRINSIC HS","Intrinsic Charter HS","4540 W BELMONT AVE","60641","Charter","Charter","Traditional","HS","7, 8, 9, 10, 11, 12","7-12","Citywide",,,41.93898843,-87.74112863,"(708)887-2735","1","IRVING PARK","30",400162
"116","OPEN","400163","KIPP Chicago Charter School - KIPP Bloom","KIPP - BLOOM","KIPP Charter Bloom","5515 S LOWE AVE","60621","Charter","Charter","Traditional","ES","K, 5, 6, 7, 8","K, 5-8","Citywide",,,41.79355627,-87.63996733,"(773)938-8565","11","ENGLEWOOD","20",400163
"117","OPEN","400165","L.E.A.R.N. Charter School- Middle School Campus","LEARN - MIDDLE","LEARN Charter - Middle School Campus","3021 W CARROLL AVE","60612","Charter","Charter","Traditional","ES","6, 7, 8","6-8","Citywide",,,41.88731991,-87.70272394,"(773)584-4300","5","EAST GARFIELD PARK","27",400165
"118","OPEN","400167","Horizon Science Academy - Southwest Chicago Charter","HORIZON - SOUTHWEST","Horizon Science Academy - Southwest Chicago Charter","5401 S. WESTERN","60609","Charter","Charter","Traditional","ES","K, 1, 2, 3, 4, 5, 6, 7, 8, 9, 10, 11, 12","K-12","Citywide",,,41.79520095,-87.68396339,"(773)498-3355","8","GAGE PARK","15",400167
"119","OPEN","400169","Noble-ITW David Speer Academy Campus","NOBLE - ITW SPEER HS","Noble-ITW David Speer Academy Campus","5321 W GRAND AVE","60639","Charter","Charter","Traditional","HS","9, 10, 11, 12","9-12","Citywide",,,41.91726641,-87.75967517,"(773)622-7484","3","BELMONT CRAGIN","37",400169
"120","OPEN","400170","Noble Charter School - The Noble Academy Campus","NOBLE - ACADEMY HS","Noble Charter School - The Noble Academy Campus","1443 N OGDEN AVE","60610","Charter","Charter","Traditional","HS","9, 10, 11, 12","9-12","Citywide",,,41.9068788,-87.64557694,"(773)278-6895","4","NEAR NORTH SIDE","27",400170
"121","OPEN","400171","Foundations College Prep Charter School","FOUNDATIONS","Foundations College Prep Charter","1233 W. 109TH PL","60643","Charter","Charter","Traditional","HS","6, 7, 8, 9, 10, 11","6-11","Citywide",,,41.69467074,-87.65353525,"(773)298-5800","13","MORGAN PARK","34",400171
"122","OPEN","400173","Pathways in Education Brighton Park","PATHWAYS - BRIGHTON PARK HS","Pathways in Education Brighton Park","3124 W. 47TH STREET","60632","Options","ALOP","Options","HS","9, 10, 11, 12","9-12","Citywide",,,41.80822579,-87.70264475,"(773)579-1220","8","BRIGHTON PARK","14",400173
"123","OPEN","400175","Excel Academy of South Shore","CAMELOT - EXCEL SOUTH SHORE HS","Excel Academy of South Shore","7530 S SOUTH SHORE DR","60649","Options","Contract","Options","HS","9, 10, 11, 12","9-12","Citywide",,,41.75974864,-87.55648708,"(773)902-7800","12","SOUTH SHORE","7",400175
"124","OPEN","400176","Excel Academy - Southwest","CAMELOT - EXCEL SOUTHWEST HS","Excel Academy - Southwest","7014 S WASHTENAW AVE","60629","Options","Contract","Options","HS","8, 9, 10, 11, 12","8-12","Citywide",,,41.76592892,-87.69073009,"(773)424-0721","10","AUBURN GRESHAM","17",400176
"125","OPEN","609674","Chicago Vocational","CHICAGO VOCATIONAL HS","Chicago Vocational Career Academy High School","2100 E 87TH ST","60617","Network 17","District","Traditional","HS","9, 10, 11, 12","9-12","Attendance Area School","9, 10, 11, 12","9-12",41.73717393,-87.57326752,"(773)535-6100","12","AVALON PARK","8",609674
"126","OPEN","609676","Dunbar Voc HS","DUNBAR HS","Paul Laurence Dunbar Career Academy High School","3000 S KING DR","60616","Network 17","District","Traditional","HS","9, 10, 11, 12","9-12","Citywide",,,41.84022557,-87.61763743,"(773)534-9000","9","DOUGLAS","4",609676
"127","OPEN","609678","Jones College Prep","JONES HS","William Jones College Preparatory High School","700 S STATE ST","60605","ISP","District","Traditional","HS","9, 10, 11, 12","9-12","Citywide",,,41.87306592,-87.62767532,"(773)534-8600","6","LOOP","4",609678
"128","OPEN","609679","Prosser Career Academy","PROSSER HS","Charles Allen Prosser Career Academy High School","2148 N LONG AVE","60639","Network 15","District","Traditional","HS","9, 10, 11, 12","9-12","Citywide",,,41.9200594,-87.76104832,"(773)534-3200","3","BELMONT CRAGIN","36",609679
"129","OPEN","609680","Payton College Prep","PAYTON HS","Walter Payton College Preparatory High School","1034 N WELLS ST","60610","ISP","District","Traditional","HS","9, 10, 11, 12","9-12","Citywide",,,41.90157517,-87.63538477,"(773)534-0034","6","NEAR NORTH SIDE","27",609680
"130","OPEN","609682","Richards Career Academy","RICHARDS HS","Ellen H Richards Career Academy High School","5009 S LAFLIN ST","60609","Network 16","District","Traditional","HS","9, 10, 11, 12","9-12","Attendance Area School","9, 10, 11, 12","9-12",41.80288138,-87.66227785,"(773)535-4945","8","NEW CITY","20",609682
"131","OPEN","609691","North-Grand HS","NORTH-GRAND HS","North-Grand High School","4338 W WABANSIA AVE","60639","Network 15","District","Traditional","HS","9, 10, 11, 12","9-12","Attendance Area School","9, 10, 11, 12","9-12",41.91167369,-87.73523756,"(773)534-8520","5","HUMBOLDT PARK","36",609691
"132","OPEN","609692","Simeon Career Academy","SIMEON HS","Neal F Simeon Career Academy High School","8147 S VINCENNES AVE","60620","Network 17","District","Traditional","HS","9, 10, 11, 12","9-12","Citywide",,,41.74578123,-87.63541037,"(773)535-3200","11","CHATHAM","21",609692
"133","OPEN","609693","George Westinghouse College Prep","WESTINGHOUSE HS","George Westinghouse College Prep","3223 W FRANKLIN BLVD","60624","Network 15","District","Traditional","HS","9, 10, 11, 12","9-12","Citywide",,,41.8899772,-87.70733231,"(773)534-6400","5","HUMBOLDT PARK","28",609693
"134","OPEN","609694","Hancock Prep HS","HANCOCK HS","John Hancock College Preparatory High School","4034 W 56TH ST","60629","Network 15","District","Traditional","HS","9, 10, 11, 12","9-12","Citywide",,,41.79146391,-87.72447046,"(773)535-2410","8","WEST ELSDON","13",609694
"135","OPEN","609695","Amundsen HS","AMUNDSEN HS","Roald Amundsen High School","5110 N DAMEN AVE","60625","ISP","District","Traditional","HS","9, 10, 11, 12","9-12","Attendance Area School","9, 10, 11, 12","9-12",41.97506726,-87.67948421,"(773)534-2320","2","LINCOLN SQUARE","40",609695
"136","OPEN","609698","Bogan HS","BOGAN HS","William J Bogan High School","3939 W 79TH ST","60652","Network 16","District","Traditional","HS","9, 10, 11, 12","9-12","Attendance Area School","9, 10, 11, 12","9-12",41.74937561,-87.72109745,"(773)535-2180","10","ASHBURN","18",609698
"137","OPEN","609704","Farragut Career Academy","FARRAGUT HS","David G Farragut Career Academy High School","2345 S CHRISTIANA AVE","60623","Network 16","District","Traditional","HS","PK, 9, 10, 11, 12","PK, 9-12","Attendance Area School","9, 10, 11, 12","9-12",41.84855987,-87.70870563,"(773)534-1300","7","SOUTH LAWNDALE","22",609704
"138","OPEN","609705","Fenger Academy","FENGER HS","Christian Fenger Academy High School","11220 S WALLACE ST","60628","Network 17","District","Traditional","HS","9, 10, 11, 12","9-12","Attendance Area School","9, 10, 11, 12","9-12",41.68995073,-87.63757205,"(773)535-5430","13","ROSELAND","34",609705
"139","OPEN","609708","Foreman HS","FOREMAN HS","Edwin G. Foreman College and Career Academy","3235 N LECLAIRE AVE","60641","Network 14","District","Traditional","HS","9, 10, 11, 12","9-12","Attendance Area School","9, 10, 11, 12","9-12",41.93979677,-87.75416654,"(773)534-3400","1","PORTAGE PARK","31",609708
"140","OPEN","609709","Gage Park HS","GAGE PARK HS","Gage Park High School","5630 S ROCKWELL ST","60629","Network 16","District","Traditional","HS","9, 10, 11, 12","9-12","Attendance Area School","9, 10, 11, 12","9-12",41.79101284,-87.68895394,"(773)535-9230","8","GAGE PARK","15",609709
"141","OPEN","609710","Harlan Comm Academy","HARLAN HS","John M Harlan Community Academy High School","9652 S MICHIGAN AVE","60628","Network 17","District","Traditional","HS","9, 10, 11, 12","9-12","Attendance Area School","9, 10, 11, 12","9-12",41.71837235,-87.62062344,"(773)535-5400","12","ROSELAND","9",609710
"142","OPEN","609711","Harper HS","HARPER HS","William Rainey Harper High School","6520 S WOOD ST","60636","Network 16","District","Traditional","HS","10, 11, 12","10-12","Attendance Area School",,,41.77512408,-87.6690893,"(773)535-9150","11","WEST ENGLEWOOD","15",609711
"143","OPEN","609712","Hirsch Metro HS","HIRSCH HS","Emil G Hirsch Metropolitan High School","7740 S INGLESIDE AVE","60619","Network 17","District","Traditional","HS","9, 10, 11, 12","9-12","Attendance Area School","9, 10, 11, 12","9-12",41.75374796,-87.60172727,"(773)535-3100","12","GREATER GRAND CROSSING","8",609712
"144","OPEN","609713","Hyde Park Career Academy","HYDE PARK HS","Hyde Park Academy High School","6220 S STONY ISLAND AVE","60637","Network 17","District","Traditional","HS","9, 10, 11, 12","9-12","Attendance Area School","9, 10, 11, 12","9-12",41.78225693,-87.58661501,"(773)535-0880","9","WOODLAWN","5",609713
"145","OPEN","609715","Kelly HS","KELLY HS","Thomas Kelly High School","4136 S CALIFORNIA AVE","60632","Network 16","District","Traditional","HS","9, 10, 11, 12","9-12","Attendance Area School","9, 10, 11, 12","9-12",41.81872906,-87.69463866,"(773)535-4900","8","BRIGHTON PARK","12",609715
"146","OPEN","609716","Kelvyn Park HS","KELVYN PARK HS","Kelvyn Park High School","4343 W WRIGHTWOOD AVE","60639","Network 14","District","Traditional","HS","7, 8, 9, 10, 11, 12","7-12","Attendance Area School","7, 8, 9, 10, 11, 12","7-12",41.9279184,-87.73599882,"(773)534-4200","4","HERMOSA","31",609716
"147","OPEN","609718","Kennedy HS","KENNEDY HS","John F Kennedy High School","6325 W 56TH ST","60638","Network 16","District","Traditional","HS","9, 10, 11, 12","9-12","Attendance Area School","9, 10, 11, 12","9-12",41.78996125,-87.78083976,"(773)535-2325","10","GARFIELD RIDGE","13",609718
"148","OPEN","609719","Lake View HS","LAKE VIEW HS","Lake View High School","4015 N ASHLAND AVE","60613","Network 14","District","Traditional","HS","9, 10, 11, 12","9-12","Attendance Area School","9, 10, 11, 12","9-12",41.95476407,-87.66895269,"(773)534-5440","2","LAKE VIEW","47",609719
"149","OPEN","609720","Lane Tech HS","LANE TECH HS","Albert G Lane Technical High School","2501 W ADDISON ST","60618","Network 14","District","Traditional","HS","7, 8, 9, 10, 11, 12","7-12","Citywide",,,41.94664458,-87.69101263,"(773)534-5400","4","NORTH CENTER","47",609720
"150","OPEN","609722","Manley Career Acad","MANLEY HS","Manley Career Academy High School","2935 W POLK ST","60612","Network 15","District","Traditional","HS","9, 10, 11, 12","9-12","Attendance Area School","9, 10, 11, 12","9-12",41.87093896,-87.69989559,"(773)534-6900","5","EAST GARFIELD PARK","28",609722
"151","OPEN","609723","Marshall Metro HS","MARSHALL HS","John Marshall Metropolitan High School","3250 W ADAMS ST","60624","Network 15","District","Traditional","HS","9, 10, 11, 12","9-12","Attendance Area School","9, 10, 11, 12","9-12",41.87844409,-87.70805007,"(773)534-6455","5","EAST GARFIELD PARK","28",609723
"152","OPEN","609724","Mather HS","MATHER HS","Stephen T Mather High School","5835 N LINCOLN AVE","60659","Network 14","District","Traditional","HS","9, 10, 11, 12","9-12","Attendance Area School","9, 10, 11, 12","9-12",41.98758868,-87.7024964,"(773)534-2350","2","WEST RIDGE","40",609724
"153","OPEN","609725","Morgan Park HS","MORGAN PARK HS","Morgan Park High School","1744 W PRYOR AVE","60643","Network 16","District","Traditional","HS","7, 8, 9, 10, 11, 12","7-12","Attendance Area School","9, 10, 11, 12","9-12",41.69203501,-87.66565755,"(773)535-2550","10","MORGAN PARK","19",609725
"154","OPEN","609726","Brooks College Prep","BROOKS HS","Gwendolyn Brooks College Preparatory Academy HS","250 E 111TH ST","60628","Network 17","District","Traditional","HS","7, 8, 9, 10, 11, 12","7-12","Citywide",,,41.69276253,-87.61635261,"(773)535-9930","13","ROSELAND","9",609726
"155","OPEN","609727","Phillips Acad","PHILLIPS HS","Wendell Phillips Academy High School","244 E PERSHING RD","60653","AUSL","District","Traditional","HS","9, 10, 11, 12","9-12","Attendance Area School","9, 10, 11, 12","9-12",41.82387997,-87.61979635,"(773)535-1603","9","DOUGLAS","3",609727
"156","OPEN","609728","Roosevelt HS","ROOSEVELT HS","Theodore Roosevelt High School","3436 W WILSON AVE","60625","Network 14","District","Traditional","HS","8, 9, 10, 11, 12","8-12","Attendance Area School","8, 9, 10, 11, 12","8-12",41.96482788,-87.71481862,"(773)534-5000","1","ALBANY PARK","33",609728
"157","OPEN","609729","Schurz HS","SCHURZ HS","Carl Schurz High School","3601 N MILWAUKEE AVE","60641","Network 14","District","Traditional","HS","9, 10, 11, 12","9-12","Attendance Area School","9, 10, 11, 12","9-12",41.94636454,-87.73561211,"(773)534-3420","1","IRVING PARK","45",609729
"158","OPEN","609730","Senn HS","SENN HS","Nicholas Senn High School","5900 N GLENWOOD AVE","60660","Network 14","District","Traditional","HS","9, 10, 11, 12","9-12","Attendance Area School","9, 10, 11, 12","9-12",41.98902854,-87.66713619,"(773)534-2365","2","EDGEWATER","48",609730
"159","OPEN","609732","Steinmetz College Preparatory HS","STEINMETZ HS","Charles P Steinmetz College Preparatory HS","3030 N MOBILE AVE","60634","Network 14","District","Traditional","HS","9, 10, 11, 12","9-12","Attendance Area School","9, 10, 11, 12","9-12",41.93563359,-87.78351523,"(773)534-3030","3","BELMONT CRAGIN","36",609732
"160","OPEN","609733","Sullivan HS","SULLIVAN HS","Roger C Sullivan High School","6631 N BOSWORTH AVE","60626","Network 14","District","Traditional","HS","9, 10, 11, 12","9-12","Attendance Area School","9, 10, 11, 12","9-12",42.00268756,-87.66919215,"(773)534-2000","2","ROGERS PARK","49",609733
"161","OPEN","609734","Taft HS","TAFT HS","William Howard Taft High School","6530 W BRYN MAWR AVE","60631","Network 14","District","Traditional","HS","7, 8, 9, 10, 11, 12","7-12","Attendance Area School","9, 10, 11, 12","9-12",41.98296099,-87.79154725,"(773)534-1000","1","NORWOOD PARK","41",609734
"162","OPEN","609735","Tilden Career Academy","TILDEN HS","Edward Tilden Career Community Academy HS","4747 S UNION AVE","60609","Network 16","District","Traditional","HS","9, 10, 11, 12","9-12","Attendance Area School","9, 10, 11, 12","9-12",41.80751007,-87.64296648,"(773)535-1625","8","NEW CITY","11",609735
"163","OPEN","609737","Von Steuben Metro HS","VON STEUBEN HS","Friedrich W von Steuben Metropolitan Science HS","5039 N KIMBALL AVE","60625","Network 14","District","Traditional","HS","9, 10, 11, 12","9-12","Citywide",,,41.97318505,-87.71338625,"(773)534-5100","1","NORTH PARK","39",609737
"164","OPEN","609738","Lincoln Park HS","LINCOLN PARK HS","Lincoln Park High School","2001 N ORCHARD ST","60614","ISP","District","Traditional","HS","9, 10, 11, 12","9-12","Attendance Area School","9, 10, 11, 12","9-12",41.91826831,-87.64600936,"(773)534-8130","4","LINCOLN PARK","43",609738
"165","OPEN","609739","George Washington HS","WASHINGTON HS","George Washington High School","3535 E 114TH ST","60617","Network 17","District","Traditional","HS","9, 10, 11, 12","9-12","Attendance Area School","9, 10, 11, 12","9-12",41.68813694,-87.5375703,"(773)535-5725","13","EAST SIDE","10",609739
"166","OPEN","609740","Wells Academy","WELLS HS","Wells Community Academy High School","936 N ASHLAND AVE","60622","Network 15","District","Traditional","HS","9, 10, 11, 12","9-12","Attendance Area School","9, 10, 11, 12","9-12",41.89899471,-87.66748287,"(773)534-7010","6","WEST TOWN","1",609740
"167","OPEN","609741","Hubbard HS","HUBBARD HS","Gurdon S Hubbard High School","6200 S HAMLIN AVE","60629","Network 16","District","Traditional","HS","9, 10, 11, 12","9-12","Attendance Area School","9, 10, 11, 12","9-12",41.78052639,-87.71801374,"(773)535-2200","10","WEST LAWN","23",609741
"168","OPEN","609744","Northside Learning Center","NORTHSIDE LEARNING HS","Northside Learning Center High School","3730 W BRYN MAWR AVE","60659","Network 14","District","Specialty","HS","9, 10, 11, 12","9-12","Citywide",,,41.98297252,-87.72238622,"(773)534-5180","1","NORTH PARK","39",609744
"169","OPEN","609745","Southside Occupational Academy","SOUTHSIDE HS","Southside Occupational Academy High School","7342 S HOYNE AVE","60636","ISP","District","Specialty","HS","11, 12","11-12","Citywide",,,41.75985243,-87.67594677,"(773)535-9100","11","WEST ENGLEWOOD","17",609745
"170","OPEN","609746","Kenwood Academy","KENWOOD HS","Kenwood Academy High School","5015 S BLACKSTONE AVE","60615","Network 17","District","Traditional","HS","7, 8, 9, 10, 11, 12","7-12","Attendance Area School","9, 10, 11, 12","9-12",41.80377212,-87.59042089,"(773)535-1350","9","KENWOOD","4",609746
"171","OPEN","609748","York HS","YORK HS","Consuella B York Alternative High School","2700 S CALIFORNIA AVE","60608","Network 16","District","Options","HS","9, 10, 11, 12","9-12","Citywide",,,41.84253335,-87.69526102,"(773)535-7021","7","SOUTH LAWNDALE","24",609748
"172","OPEN","609749","Northside College Prep","NORTHSIDE PREP HS","Northside College Preparatory High School","5501 N KEDZIE AVE","60625","ISP","District","Traditional","HS","9, 10, 11, 12","9-12","Citywide",,,41.98131528,-87.7087078,"(773)534-3954","1","NORTH PARK","40",609749
"173","OPEN","609750","Simpson Academy","SIMPSON HS","Simpson Academy High School for Young Women","1321 S PAULINA ST","60608","Network 15","District","Options","HS","6, 7, 8, 9, 10, 11, 12","6-12","Citywide",,,41.86436548,-87.66872223,"(773)534-7812","6","NEAR WEST SIDE","28",609750
"174","OPEN","609751","King HS","KING HS","Dr  Martin Luther King  Jr  College Prep HS","4445 S DREXEL BLVD","60653","Network 17","District","Traditional","HS","9, 10, 11, 12","9-12","Citywide",,,41.81367545,-87.60387386,"(773)535-1180","9","KENWOOD","4",609751
"175","OPEN","609753","Chicago Agricultural HS","CHICAGO AGRICULTURE HS","Chicago High School for Agricultural Sciences","3857 W 111TH ST","60655","ISP","District","Traditional","HS","9, 10, 11, 12","9-12","Citywide",,,41.69122074,-87.71776967,"(773)535-2500","10","MOUNT GREENWOOD","19",609753
"176","OPEN","609754","Chicago Miliray Academy","CHICAGO MILITARY HS","Chicago Military Academy High School","3519 S GILES AVE","60653","Network 17","District","Traditional","HS","9, 10, 11, 12","9-12","Citywide",,,41.83055498,-87.61921554,"(773)534-9750","9","DOUGLAS","3",609754
"177","OPEN","609755","Young Magnet HS","YOUNG HS","Whitney M Young Magnet High School","211 S LAFLIN ST","60607","ISP","District","Traditional","HS","7, 8, 9, 10, 11, 12","7-12","Citywide",,,41.87860253,-87.66423334,"(773)534-7500","6","NEAR WEST SIDE","27",609755
"178","OPEN","609756","Curie Metro HS","CURIE HS","Marie Sklodowska Curie Metropolitan High School","4959 S ARCHER AVE","60632","Network 15","District","Traditional","HS","9, 10, 11, 12","9-12","Attendance Area School","9, 10, 11, 12","9-12",41.80306021,-87.72204165,"(773)535-2100","8","ARCHER HEIGHTS","14",609756
"179","OPEN","609759","Clemente Academy","CLEMENTE HS","Roberto Clemente Community Academy High School","1147 N WESTERN AVE","60622","Network 15","District","Traditional","HS","9, 10, 11, 12","9-12","Attendance Area School","9, 10, 11, 12","9-12",41.90262579,-87.68690615,"(773)534-4000","5","WEST TOWN","1",609759
"180","OPEN","609760","Carver Military Academy","CARVER MILITARY HS","George Washington Carver Military Academy HS","13100 S DOTY AVE","60627","Network 17","District","Traditional","HS","9, 10, 11, 12","9-12","Citywide",,,41.65628995,-87.59062039,"(773)535-5250","13","RIVERDALE","9",609760
"181","OPEN","609761","Corliss HS","CORLISS HS","George H Corliss High School","821 E 103RD ST","60628","Network 17","District","Traditional","HS","9, 10, 11, 12","9-12","Attendance Area School","9, 10, 11, 12","9-12",41.70665962,-87.60121588,"(773)535-5115","13","PULLMAN","9",609761
"182","OPEN","609762","Julian HS","JULIAN HS","Percy L Julian High School","10330 S ELIZABETH ST","60643","Network 16","District","Traditional","HS","9, 10, 11, 12","9-12","Attendance Area School","9, 10, 11, 12","9-12",41.70585894,-87.65374921,"(773)535-5170","10","WASHINGTON HEIGHTS","34",609762
"183","OPEN","609764","Juarez Academy","JUAREZ HS","Benito Juarez Community Academy High School","1450 W CERMAK RD","60608","ISP","District","Traditional","HS","9, 10, 11, 12","9-12","Attendance Area School","9, 10, 11, 12","9-12",41.85267014,-87.66433931,"(773)534-7030","7","LOWER WEST SIDE","25",609764
"184","OPEN","609766","Vaughn Occupational HS","VAUGHN HS","Jacqueline B Vaughn Occupational High School","4355 N LINDER AVE","60641","Network 14","District","Specialty","HS","9, 10, 11, 12","9-12","Citywide",,,41.9603638,-87.76466317,"(773)534-3600","1","PORTAGE PARK","38",609766
"185","OPEN","609768","Hope College Prep","HOPE HS","Hope College Preparatory High School","5515 S LOWE AVE","60621","Network 16","District","Traditional","HS","10, 11, 12","10-12","Attendance Area School",,,41.79355347,-87.64124411,"(773)535-3160","11","ENGLEWOOD","20",609768
"186","OPEN","609769","Ray Graham Training Ct","GRAHAM HS","Ray Graham Training Center High School","2347 S WABASH AVE","60616","Network 14","District","Specialty","HS","9, 10, 11, 12","9-12","Citywide",,,41.84967542,-87.62531482,"(773)534-9257","6","NEAR SOUTH SIDE","3",609769
"187","OPEN","609772","Addams ES","ADDAMS","Jane Addams Elementary School","10810 S AVENUE H","60617","ISP","District","Traditional","ES","PK, K, 1, 2, 3, 4, 5, 6, 7, 8","PK-8","Attendance Area School","K, 1, 2, 3, 4, 5, 6, 7, 8","K-8",41.6987388,-87.53297604,"(773)535-6210","13","EAST SIDE","10",609772
"188","OPEN","609773","Agassiz ES","AGASSIZ","Louis A Agassiz Elementary School","2851 N SEMINARY AVE","60657","ISP","District","Traditional","ES","PK, K, 1, 2, 3, 4, 5, 6, 7, 8","PK-8","Attendance Area School","K, 1, 2, 3, 4, 5, 6, 7, 8","K-8",41.9341263,-87.65622867,"(773)534-5725","4","LAKE VIEW","44",609773
"189","OPEN","609777","Armour ES","ARMOUR","Phillip D Armour Elementary School","950 W 33RD PL","60608","Network 6","District","Traditional","ES","PK, K, 1, 2, 3, 4, 5, 6, 7, 8","PK-8","Attendance Area School","K, 1, 2, 3, 4, 5, 6, 7, 8","K-8",41.83385391,-87.65065316,"(773)535-4530","6","BRIDGEPORT","11",609777
"190","OPEN","609779","George Armstrong ES","ARMSTRONG G","George Armstrong International Studies ES","2110 W GREENLEAF AVE","60645","Network 2","District","Traditional","ES","PK, K, 1, 2, 3, 4, 5, 6, 7, 8","PK-8","Attendance Area School","K, 1, 2, 3, 4, 5, 6, 7, 8","K-8",42.01014998,-87.68444183,"(773)534-2150","2","WEST RIDGE","50",609779
"191","OPEN","609780","Marine Leadership Academy at Ames","MARINE LEADERSHIP AT AMES HS","Marine Leadership Acad-Ames HS","1920 N HAMLIN AVE","60647","ISP","District","Traditional","HS","7, 8, 9, 10, 11, 12","7-12","Citywide",,,41.91604463,-87.72174232,"(773)534-4970","4","LOGAN SQUARE","26",609780
"192","OPEN","609782","Audubon ES","AUDUBON","John J Audubon Elementary School","3500 N HOYNE AVE","60618","Network 4","District","Traditional","ES","PK, K, 1, 2, 3, 4, 5, 6, 7, 8","PK-8","Attendance Area School","K, 1, 2, 3, 4, 5, 6, 7, 8","K-8",41.94506223,-87.68104105,"(773)534-5470","4","NORTH CENTER","47",609782
"193","OPEN","609783","Nancy Jefferson Alternative HS","JEFFERSON HS","Nancy B Jefferson Alternative High School","1100 S HAMILTON AVE","60612","Network 16","District","Options","HS","6, 7, 8, 9, 10, 11, 12","6-12","Citywide",,,41.86783229,-87.68041755,"(312)433-7110","6","NEAR WEST SIDE","27",609783
"194","OPEN","609786","Avalon Park ES","AVALON PARK","Avalon Park Elementary School","8045 S KENWOOD AVE","60619","ISP","District","Traditional","ES","PK, K, 1, 2, 3, 4, 5, 6, 7, 8","PK-8","Attendance Area School","K, 1, 2, 3, 4, 5, 6, 7, 8","K-8",41.74824699,-87.59165381,"(773)535-6615","12","AVALON PARK","8",609786
"195","OPEN","609788","Barnard ES","BARNARD","Alice L Barnard Computer Math & Science Ctr ES","10354 S CHARLES ST","60643","Network 10","District","Traditional","ES","PK, K, 1, 2, 3, 4, 5, 6, 7, 8","PK-8","Attendance Area School","K, 1, 2, 3, 4, 5, 6, 7, 8","K-8",41.70513101,-87.65807422,"(773)535-2625","10","BEVERLY","19",609788
"196","OPEN","609789","Barry ES","BARRY","John Barry Elementary School","2828 N KILBOURN AVE","60641","ISP","District","Traditional","ES","PK, K, 1, 2, 3, 4, 5, 6","PK-6","Attendance Area School","K, 1, 2, 3, 4, 5, 6","K-6",41.93251058,-87.73938835,"(773)534-3455","4","HERMOSA","31",609789
"197","OPEN","609790","Barton ES","BARTON","Clara Barton Elementary School","7650 S WOLCOTT AVE","60620","Network 11","District","Traditional","ES","PK, K, 1, 2, 3, 4, 5, 6, 7, 8","PK-8","Attendance Area School","K, 1, 2, 3, 4, 5, 6, 7, 8","K-8",41.75419385,-87.67092713,"(773)535-3260","11","AUBURN GRESHAM","17",609790
"198","OPEN","609791","Bass ES","BASS","Perkins Bass Elementary School","1140 W 66TH ST","60621","Network 11","District","Traditional","ES","PK, K, 1, 2, 3, 4, 5, 6, 7, 8","PK-8","Attendance Area School","K, 1, 2, 3, 4, 5, 6, 7, 8","K-8",41.77424645,-87.65353242,"(773)535-3275","11","ENGLEWOOD","16",609791
"199","OPEN","609792","Bateman ES","BATEMAN","Newton Bateman Elementary School","4220 N RICHMOND ST","60618","Network 1","District","Traditional","ES","PK, K, 1, 2, 3, 4, 5, 6, 7, 8","PK-8","Attendance Area School","K, 1, 2, 3, 4, 5, 6, 7, 8","K-8",41.95821984,-87.70215096,"(773)534-5055","1","IRVING PARK","33",609792
"200","OPEN","609793","Nicholson Technology Academy","NICHOLSON","Lillian R. Nicholson STEM Academy","6006 S PEORIA ST","60621","Network 11","District","Traditional","ES","PK, K, 1, 2, 3, 4, 5, 6, 7, 8","PK-8","Attendance Area School","K, 1, 2, 3, 4, 5, 6, 7, 8","K-8",41.78494238,-87.64745284,"(773)535-3285","11","ENGLEWOOD","16",609793
"201","OPEN","609794","Edison RGC ES","EDISON","Thomas A Edison Regional Gifted Center ES","4929 N SAWYER AVE","60625","Network 1","District","Traditional","ES","K, 1, 2, 3, 4, 5, 6, 7, 8","K-8","Citywide",,,41.9715061,-87.70930367,"(773)534-0540","1","ALBANY PARK","33",609794
"202","OPEN","609795","George Rogers Clark ES","CLARK ES","George Rogers Clark Elementary School","1045 S MONITOR AVE","60644","ISP","District","Traditional","ES","PK, K, 1, 2, 3, 4, 5, 6, 7, 8","PK-8","Attendance Area School","K, 1, 2, 3, 4, 5, 6, 7, 8","K-8",41.86781257,-87.77041753,"(773)534-6225","3","AUSTIN","29",609795
"203","OPEN","609796","Beaubien ES","BEAUBIEN","Jean Baptiste Beaubien Elementary School","5025 N LARAMIE AVE","60630","Network 1","District","Traditional","ES","PK, K, 1, 2, 3, 4, 5, 6, 7, 8","PK-8","Attendance Area School","K, 1, 2, 3, 4, 5, 6, 7, 8","K-8",41.97239395,-87.75756504,"(773)534-3500","1","JEFFERSON PARK","45",609796
"204","OPEN","609797","Beidler ES","BEIDLER","Jacob Beidler Elementary School","3151 W WALNUT ST","60612","Network 5","District","Traditional","ES","PK, K, 1, 2, 3, 4, 5, 6, 7, 8","PK-8","Attendance Area School","K, 1, 2, 3, 4, 5, 6, 7, 8","K-8",41.88532104,-87.70585481,"(773)534-6811","5","EAST GARFIELD PARK","27",609797
"205","OPEN","609798","Belding ES","BELDING","Hiram H Belding Elementary School","4257 N TRIPP AVE","60641","Network 1","District","Traditional","ES","PK, K, 1, 2, 3, 4, 5, 6, 7, 8","PK-8","Attendance Area School","K, 1, 2, 3, 4, 5, 6, 7, 8","K-8",41.95893849,-87.73401973,"(773)534-3590","1","IRVING PARK","39",609798
"206","OPEN","609799","Bell ES","BELL","Alexander Graham Bell Elementary School","3730 N OAKLEY AVE","60618","Network 4","District","Traditional","ES","K, 1, 2, 3, 4, 5, 6, 7, 8","K-8","Attendance Area School","K, 1, 2, 3, 4, 5, 6, 7, 8","K-8",41.9495298,-87.68601824,"(773)534-5150","4","NORTH CENTER","47",609799
"207","OPEN","609800","Bennett ES","BENNETT","Frank I Bennett Elementary School","10115 S PRAIRIE AVE","60628","Network 13","District","Traditional","ES","PK, K, 1, 2, 3, 4, 5, 6, 7, 8","PK-8","Attendance Area School","K, 1, 2, 3, 4, 5, 6, 7, 8","K-8",41.71043495,-87.61739046,"(773)535-5460","13","ROSELAND","9",609800
"208","OPEN","609803","Blaine ES","BLAINE","James G Blaine Elementary School","1420 W GRACE ST","60613","Network 4","District","Traditional","ES","PK, K, 1, 2, 3, 4, 5, 6, 7, 8","PK-8","Attendance Area School","K, 1, 2, 3, 4, 5, 6, 7, 8","K-8",41.95078052,-87.66496784,"(773)534-5750","4","LAKE VIEW","44",609803
"209","OPEN","609804","Boone ES","BOONE","Daniel Boone Elementary School","6710 N WASHTENAW AVE","60645","Network 2","District","Traditional","ES","PK, K, 1, 2, 3, 4, 5, 6, 7, 8","PK-8","Attendance Area School","K, 1, 2, 3, 4, 5, 6, 7, 8","K-8",42.00341161,-87.69746282,"(773)534-2160","2","WEST RIDGE","50",609804
"210","OPEN","609805","Joplin ES","JOPLIN","Scott Joplin Elementary School","7931 S HONORE ST","60620","Network 11","District","Traditional","ES","PK, K, 1, 2, 3, 4, 5, 6, 7, 8","PK-8","Attendance Area School","K, 1, 2, 3, 4, 5, 6, 7, 8","K-8",41.74933916,-87.66936565,"(773)535-3425","11","AUBURN GRESHAM","17",609805
"211","OPEN","609806","Bradwell ES","BRADWELL","Myra Bradwell Communications Arts & Sciences ES","7736 S BURNHAM AVE","60649","AUSL","District","Traditional","ES","PK, K, 1, 2, 3, 4, 5, 6, 7, 8","PK-8","Attendance Area School","K, 1, 2, 3, 4, 5, 6, 7, 8","K-8",41.75436513,-87.55714197,"(773)535-6600","12","SOUTH SHORE","7",609806
"212","OPEN","609807","Hampton ES","HAMPTON","Lionel Hampton Fine & Performing Arts ES","3434 W 77TH ST","60652","Network 10","District","Traditional","ES","K, 1, 2, 3, 4, 5, 6, 7, 8","K-8","Attendance Area School","K, 1, 2, 3, 4, 5, 6, 7, 8","K-8",41.75345719,-87.70873128,"(773)535-4030","10","ASHBURN","18",609807
"213","OPEN","609808","Haley Elem Academy","HALEY","Alex Haley Elementary Academy","11411 S EGGLESTON AVE","60628","Network 13","District","Traditional","ES","PK, K, 1, 2, 3, 4, 5, 6, 7, 8","PK-8","Attendance Area School","K, 1, 2, 3, 4, 5, 6, 7, 8","K-8",41.68665997,-87.63363214,"(773)535-5340","13","ROSELAND","34",609808
"214","OPEN","609809","Brentano Elem Academy","BRENTANO","Lorenz Brentano Math & Science Academy ES","2723 N FAIRFIELD AVE","60647","Network 4","District","Traditional","ES","PK, K, 1, 2, 3, 4, 5, 6, 7, 8","PK-8","Attendance Area School","K, 1, 2, 3, 4, 5, 6, 7, 8","K-8",41.9309661,-87.6962942,"(773)534-4100","4","LOGAN SQUARE","32",609809
"215","OPEN","609810","Bridge ES","BRIDGE","Norman A Bridge Elementary School","3800 N NEW ENGLAND AVE","60634","Network 1","District","Traditional","ES","PK, K, 1, 2, 3, 4, 5, 6, 7, 8","PK-8","Attendance Area School","K, 1, 2, 3, 4, 5, 6, 7, 8","K-8",41.94911439,-87.79866892,"(773)534-3718","1","DUNNING","38",609810
"216","OPEN","609811","Bright ES","BRIGHT","Orville T Bright Elementary School","10740 S CALHOUN AVE","60617","Network 13","District","Traditional","ES","PK, K, 1, 2, 3, 4, 5, 6, 7, 8","PK-8","Attendance Area School","K, 1, 2, 3, 4, 5, 6, 7, 8","K-8",41.69972622,-87.56208423,"(773)535-6215","13","SOUTH DEERING","10",609811
"217","OPEN","609812","William Brown ES","BROWN W","William H Brown Elementary School","54 N HERMITAGE AVE","60612","Network 6","District","Traditional","ES","PK, K, 1, 2, 3, 4, 5, 6, 7, 8","PK-8","Attendance Area School","1, 2, 3, 4, 5, 6, 7, 8","1-8",41.88299678,-87.67068239,"(773)534-7250","6","NEAR WEST SIDE","27",609812
"218","OPEN","609813","Brownell ES","BROWNELL","Charles S Brownell Elementary School","6741 S MICHIGAN AVE","60637","Network 12","District","Traditional","ES","PK, K, 1, 2, 3, 4, 5, 6","PK-6","Attendance Area School","K, 1, 2, 3, 4, 5, 6","K-6",41.77162036,-87.62174597,"(773)535-3030","12","GREATER GRAND CROSSING","6",609813
"219","OPEN","609815","Bouchet ES Academy","BOUCHET","Edward A Bouchet Math & Science Academy ES","7355 S JEFFERY BLVD","60649","Network 12","District","Traditional","ES","PK, K, 1, 2, 3, 4, 5, 6, 7, 8","PK-8","Attendance Area School","K, 1, 2, 3, 4, 5, 6, 7, 8","K-8",41.76084748,-87.57607486,"(773)535-0501","12","SOUTH SHORE","7",609815
"220","OPEN","609817","Budlong ES","BUDLONG","Lyman A Budlong Elementary School","2701 W FOSTER AVE","60625","ISP","District","Traditional","ES","PK, K, 1, 2, 3, 4, 5, 6, 7, 8","PK-8","Attendance Area School","K, 1, 2, 3, 4, 5, 6, 7, 8","K-8",41.97575433,-87.69655603,"(773)534-2591","2","LINCOLN SQUARE","40",609817
"221","OPEN","609818","Burbank ES","BURBANK","Luther Burbank Elementary School","2035 N MOBILE AVE","60639","Network 3","District","Traditional","ES","PK, K, 1, 2, 3, 4, 5, 6, 7, 8","PK-8","Attendance Area School","K, 1, 2, 3, 4, 5, 6, 7, 8","K-8",41.91759814,-87.78269957,"(773)534-3000","3","BELMONT CRAGIN","29",609818
"222","OPEN","609819","Burke ES","BURKE","Edmond Burke Elementary School","5356 S KING DR","60615","Network 9","District","Traditional","ES","PK, K, 1, 2, 3, 4, 5, 6, 7, 8","PK-8","Attendance Area School","K, 1, 2, 3, 4, 5, 6, 7, 8","K-8",41.79675956,-87.61614052,"(773)535-1325","9","WASHINGTON PARK","3",609819
"223","OPEN","609820","Burley ES","BURLEY","Augustus H Burley Elementary School","1630 W BARRY AVE","60657","ISP","District","Traditional","ES","PK, K, 1, 2, 3, 4, 5, 6, 7, 8","PK-8","Attendance Area School","K, 1, 2, 3, 4, 5, 6, 7, 8","K-8",41.93793747,-87.66985312,"(773)534-5475","4","LAKE VIEW","32",609820
"224","OPEN","609821","Burnham ES Academy","BURNHAM","Burnham Elementary Inclusive Academy","9928 S CRANDON AVE","60617","Network 13","District","Traditional","ES","PK, K, 1, 2, 3, 4, 5, 6, 7, 8","PK-8","Attendance Area School","K, 1, 2, 3, 4, 5, 6, 7, 8","K-8",41.71440206,-87.56713059,"(773)535-6530","13","SOUTH DEERING","7",609821
"225","OPEN","609827","Burnside Elem Academy","BURNSIDE","Burnside Elementary Scholastic Academy","650 E 91ST PL","60619","Network 12","District","Traditional","ES","PK, K, 1, 2, 3, 4, 5, 6, 7, 8","PK-8","Citywide",,,41.72848064,-87.60743532,"(773)535-3300","12","CHATHAM","8",609827
"226","OPEN","609828","Burr Elem Academy","BURR","Jonathan Burr Elementary School","1621 W WABANSIA AVE","60622","Network 6","District","Traditional","ES","PK, K, 1, 2, 3, 4, 5, 6, 7, 8","PK-8","Attendance Area School","K, 1, 2, 3, 4, 5, 6, 7, 8","K-8",41.91235791,-87.6686606,"(773)534-4090","6","WEST TOWN","32",609828
"227","OPEN","609829","Burroughs ES","BURROUGHS","John C Burroughs Elementary School","3542 S WASHTENAW AVE","60632","ISP","District","Traditional","ES","PK, K, 1, 2, 3, 4, 5, 6, 7, 8","PK-8","Attendance Area School","K, 1, 2, 3, 4, 5, 6, 7, 8","K-8",41.82886791,-87.69245663,"(773)535-7226","8","BRIGHTON PARK","12",609829
"228","OPEN","609830","Brunson ES","BRUNSON","Milton Brunson Math & Science Specialty ES","932 N CENTRAL AVE","60651","Network 3","District","Traditional","ES","PK, K, 1, 2, 3, 4, 5, 6, 7, 8","PK-8","Attendance Area School","K, 1, 2, 3, 4, 5, 6, 7, 8","K-8",41.89766257,-87.76560566,"(773)534-6025","3","AUSTIN","29",609830
"229","OPEN","609832","Byrne ES","BYRNE","Michael M Byrne Elementary School","5329 S OAK PARK AVE","60638","Network 10","District","Traditional","ES","K, 1, 2, 3, 4, 5, 6, 7, 8","K-8","Attendance Area School","K, 1, 2, 3, 4, 5, 6, 7, 8","K-8",41.79503097,-87.79154448,"(773)535-2170","10","GARFIELD RIDGE","23",609832
"230","OPEN","609833","Caldwell Elem Academy","CALDWELL","Charles P Caldwell Academy of Math & Science ES","8546 S CREGIER AVE","60617","ISP","District","Traditional","ES","PK, K, 1, 2, 3, 4, 5, 6, 7, 8","PK-8","Attendance Area School","K, 1, 2, 3, 4, 5, 6, 7, 8","K-8",41.73922636,-87.58072903,"(773)535-6300","12","AVALON PARK","8",609833
"231","OPEN","609834","Little Village ES","LITTLE VILLAGE","Little Village Elementary School","2620 S LAWNDALE AVE","60623","ISP","District","Traditional","ES","PK, K, 1, 2, 3, 4, 5, 6, 7, 8","PK-8","Attendance Area School","K, 1, 2, 3, 4, 5, 6, 7, 8","K-8",41.84369812,-87.71731895,"(773)534-1880","7","SOUTH LAWNDALE","22",609834
"232","OPEN","609835","Cameron ES","CAMERON","Daniel R Cameron Elementary School","1234 N MONTICELLO AVE","60651","ISP","District","Traditional","ES","PK, K, 1, 2, 3, 4, 5, 6, 7, 8","PK-8","Attendance Area School","K, 1, 2, 3, 4, 5, 6, 7, 8","K-8",41.90379212,-87.71792664,"(773)534-4290","5","HUMBOLDT PARK","26",609835
"233","OPEN","609836","Canty ES","CANTY","Arthur E Canty Elementary School","3740 N PANAMA AVE","60634","Network 1","District","Traditional","ES","PK, K, 1, 2, 3, 4, 5, 6, 7, 8","PK-8","Attendance Area School","K, 1, 2, 3, 4, 5, 6, 7, 8","K-8",41.94800703,-87.8292957,"(773)534-1238","1","DUNNING","38",609836
"234","OPEN","609837","Carnegie ES","CARNEGIE","Andrew Carnegie Elementary School","1414 E 61ST PL","60637","ISP","District","Traditional","ES","PK, K, 1, 2, 3, 4, 5, 6, 7, 8","PK-8","Attendance Area School","K, 1, 2, 3, 4, 5, 6, 7, 8","K-8",41.78336832,-87.59079501,"(773)535-0530","9","WOODLAWN","20",609837
"235","OPEN","609839","Carroll-Rosenwald Special ES","CARROLL","Carroll-Rosenwald Specialty Elementary School","2929 W 83RD ST","60652","Network 10","District","Traditional","ES","PK, K, 1, 2, 3, 4, 5, 6, 7, 8","PK-8","Attendance Area School","K, 1, 2, 3, 4, 5, 6, 7, 8","K-8",41.74251663,-87.69601208,"(773)535-9414","10","ASHBURN","18",609839
"236","OPEN","609842","Carson ES","CARSON","Rachel Carson Elementary School","5516 S MAPLEWOOD AVE","60629","ISP","District","Traditional","ES","PK, K, 1, 2, 3, 4, 5, 6, 7, 8","PK-8","Attendance Area School","K, 1, 2, 3, 4, 5, 6, 7, 8","K-8",41.79327214,-87.68779954,"(773)535-9222","8","GAGE PARK","15",609842
"237","OPEN","609844","Carter ES","CARTER","William W Carter Elementary School","5740 S MICHIGAN AVE","60637","AUSL","District","Traditional","ES","PK, K, 1, 2, 3, 4, 5, 6, 7, 8","PK-8","Attendance Area School","K, 1, 2, 3, 4, 5, 6, 7, 8","K-8",41.78982791,-87.62245275,"(773)535-0860","9","WASHINGTON PARK","20",609844
"238","OPEN","609845","Carver ES","CARVER G","George Washington Carver Primary School","901 E 133RD PL","60827","Network 13","District","Traditional","ES","PK, K, 1, 2, 3, 4, 5, 6, 7, 8","PK-8","Attendance Area School","K, 1, 2, 3, 4, 5, 6, 7, 8","K-8",41.65370212,-87.59951563,"(773)535-5674","13","RIVERDALE","9",609845
"239","OPEN","609848","Aldridge ES","ALDRIDGE","Ira F Aldridge Elementary School","630 E 131ST ST","60827","Network 13","District","Traditional","ES","PK, K, 1, 2, 3, 4, 5, 6, 7, 8","PK-8","Attendance Area School","K, 1, 2, 3, 4, 5, 6, 7, 8","K-8",41.65740497,-87.60647385,"(773)535-5614","13","RIVERDALE","9",609848
"240","OPEN","609849","Cassell ES","CASSELL","George F Cassell Elementary School","11314 S SPAULDING AVE","60655","ISP","District","Traditional","ES","K, 1, 2, 3, 4, 5, 6, 7, 8","K-8","Attendance Area School","K, 1, 2, 3, 4, 5, 6, 7, 8","K-8",41.68734706,-87.70321549,"(773)535-2640","10","MOUNT GREENWOOD","19",609849
"241","OPEN","609850","Greeley ES","GREELEY","Horace Greeley Elementary School","832 W SHERIDAN RD","60613","Network 4","District","Traditional","ES","PK, K, 1, 2, 3, 4, 5, 6, 7, 8","PK-8","Attendance Area School","K, 1, 2, 3, 4, 5, 6, 7, 8","K-8",41.95280951,-87.65097987,"(773)534-5800","4","LAKE VIEW","46",609850
"242","OPEN","609851","Chalmers Special ES","CHALMERS","Thomas Chalmers Specialty Elementary School","2745 W ROOSEVELT RD","60608","AUSL","District","Traditional","ES","PK, K, 1, 2, 3, 4, 5, 6, 7, 8","PK-8","Attendance Area School","K, 1, 2, 3, 4, 5, 6, 7, 8","K-8",41.86643525,-87.69525937,"(773)534-1720","5","NORTH LAWNDALE","28",609851
"243","OPEN","609852","Chappell ES","CHAPPELL","Eliza Chappell Elementary School","2135 W FOSTER AVE","60625","ISP","District","Traditional","ES","PK, K, 1, 2, 3, 4, 5, 6, 7, 8","PK-8","Attendance Area School","K, 1, 2, 3, 4, 5, 6, 7, 8","K-8",41.9758943,-87.68326359,"(773)534-2390","2","LINCOLN SQUARE","40",609852
"244","OPEN","609853","Chase ES","CHASE","Salmon P Chase Elementary School","2021 N POINT ST","60647","Network 4","District","Traditional","ES","PK, K, 1, 2, 3, 4, 5, 6, 7, 8","PK-8","Attendance Area School","K, 1, 2, 3, 4, 5, 6, 7, 8","K-8",41.91799265,-87.69456225,"(773)534-4185","4","LOGAN SQUARE","1",609853
"245","OPEN","609854","Chopin ES","CHOPIN","Frederic Chopin Elementary School","2450 W RICE ST","60622","Network 5","District","Traditional","ES","PK, K, 1, 2, 3, 4, 5, 6, 7, 8","PK-8","Attendance Area School","K, 1, 2, 3, 4, 5, 6, 7, 8","K-8",41.89671269,-87.68893676,"(773)534-4080","5","WEST TOWN","26",609854
"246","OPEN","609855","Christopher ES","CHRISTOPHER","Walter S Christopher Elementary School","5042 S ARTESIAN AVE","60632","Network 8","District","Traditional","ES","K, 1, 2, 3, 4, 5, 6, 7, 8","K-8","Citywide",,,41.80165862,-87.685607,"(773)535-9375","8","GAGE PARK","14",609855
"247","OPEN","609856","Clay ES","CLAY","Henry Clay Elementary School","13231 S BURLEY AVE","60633","Network 13","District","Traditional","ES","PK, K, 1, 2, 3, 4, 5, 6, 7, 8","PK-8","Attendance Area School","K, 1, 2, 3, 4, 5, 6, 7, 8","K-8",41.65455815,-87.5446136,"(773)535-5600","13","HEGEWISCH","10",609856
"248","OPEN","609857","Cleveland ES","CLEVELAND","Grover Cleveland Elementary School","3121 W BYRON ST","60618","Network 1","District","Traditional","ES","PK, K, 1, 2, 3, 4, 5, 6, 7, 8","PK-8","Attendance Area School","K, 1, 2, 3, 4, 5, 6, 7, 8","K-8",41.95204212,-87.70644253,"(773)534-5130","1","IRVING PARK","33",609857
"249","OPEN","609859","Clinton ES","CLINTON","DeWitt Clinton Elementary School","6110 N FAIRFIELD AVE","60659","Network 2","District","Traditional","ES","PK, K, 1, 2, 3, 4, 5, 6, 7, 8","PK-8","Attendance Area School","K, 1, 2, 3, 4, 5, 6, 7, 8","K-8",41.99254136,-87.69835995,"(773)534-2025","2","WEST RIDGE","40",609859
"250","OPEN","609861","Clissold ES","CLISSOLD","Henry R Clissold Elementary School","2350 W 110TH PL","60643","Network 10","District","Traditional","ES","K, 1, 2, 3, 4, 5, 6, 7, 8","K-8","Attendance Area School","K, 1, 2, 3, 4, 5, 6, 7, 8","K-8",41.69302601,-87.68089679,"(773)535-2560","10","MORGAN PARK","19",609861
"251","OPEN","609862","Edward Coles ES Academy","COLES","Edward Coles Elementary Language Academy","8441 S YATES BLVD","60617","Network 12","District","Traditional","ES","PK, K, 1, 2, 3, 4, 5, 6, 7, 8","PK-8","Attendance Area School","K, 1, 2, 3, 4, 5, 6, 7, 8","K-8",41.74141281,-87.56596977,"(773)535-6550","12","SOUTH CHICAGO","7",609862
"252","OPEN","609863","Columbus ES","COLUMBUS","Christopher Columbus Elementary School","1003 N LEAVITT ST","60622","ISP","District","Traditional","ES","PK, K, 1, 2, 3, 4, 5, 6, 7, 8","PK-8","Attendance Area School","K, 1, 2, 3, 4, 5, 6, 7, 8","K-8",41.89956578,-87.68193805,"(773)534-4350","5","WEST TOWN","2",609863
"253","OPEN","609864","Cook ES","COOK","John W Cook Elementary School","8150 S BISHOP ST","60620","Network 11","District","Traditional","ES","PK, K, 1, 2, 3, 4, 5, 6, 7, 8","PK-8","Attendance Area School","K, 1, 2, 3, 4, 5, 6, 7, 8","K-8",41.74523702,-87.65977459,"(773)535-3315","11","AUBURN GRESHAM","21",609864
"254","OPEN","609865","Jordan ES","JORDAN","Jordan Elementary Community School","7414 N WOLCOTT AVE","60626","Network 2","District","Traditional","ES","PK, K, 1, 2, 3, 4, 5, 6, 7, 8","PK-8","Attendance Area School","K, 1, 2, 3, 4, 5, 6, 7, 8","K-8",42.01708759,-87.67776252,"(773)534-2220","2","ROGERS PARK","49",609865
"255","OPEN","609866","Coonley ES","COONLEY","John C Coonley Elementary School","4046 N LEAVITT ST","60618","Network 2","District","Traditional","ES","K, 1, 2, 3, 4, 5, 6, 7, 8","K-8","Attendance Area School","K, 1, 2, 3, 4, 5, 6, 7, 8","K-8",41.9555532,-87.6837653,"(773)534-5140","2","NORTH CENTER","47",609866
"256","OPEN","609867","Cooper ES Academy","COOPER","Peter Cooper Elementary Dual Language Academy","1624 W 19TH ST","60608","Network 7","District","Traditional","ES","PK, K, 1, 2, 3, 4, 5","PK-5","Attendance Area School","K, 1, 2, 3, 4, 5","K-5",41.85603119,-87.66722708,"(773)534-7205","7","LOWER WEST SIDE","25",609867
"257","OPEN","609869","Langford Academy","LANGFORD","Anna R. Langford Community Academy","6010 S THROOP ST","60636","Network 11","District","Traditional","ES","PK, K, 1, 2, 3, 4, 5, 6, 7, 8","PK-8","Attendance Area School","K, 1, 2, 3, 4, 5, 6, 7, 8","K-8",41.78468086,-87.65716921,"(773)535-9180","11","WEST ENGLEWOOD","16",609869
"258","OPEN","609870","Corkery ES","CORKERY","Daniel J Corkery Elementary School","2510 S KILDARE AVE","60623","ISP","District","Traditional","ES","PK, K, 1, 2, 3, 4, 5, 6, 7, 8","PK-8","Attendance Area School","K, 1, 2, 3, 4, 5, 6, 7, 8","K-8",41.84560242,-87.73119287,"(773)534-1650","7","SOUTH LAWNDALE","22",609870
"259","OPEN","609871","Vick Center","VICK","Barbara Vick Early Childhood & Family Center","2554 W 113TH ST","60655","Network 10","District","Early Childhood","ES","PK","PK","Citywide",,,41.68819084,-87.6856766,"(773)535-2671","10","MORGAN PARK","19",609871
"260","OPEN","609872","Perez ES","PEREZ","Manuel Perez Elementary School","1241 W 19TH ST","60608","Network 7","District","Traditional","ES","PK, K, 1, 2, 3, 4, 5, 6, 7, 8","PK-8","Attendance Area School","K, 1, 2, 3, 4, 5, 6, 7, 8","K-8",41.85602872,-87.65798013,"(773)534-7650","7","LOWER WEST SIDE","25",609872
"261","OPEN","609873","Crown Elem Acad","CROWN","Crown Community Academy of Fine Arts Center ES","2128 S SAINT LOUIS AVE","60623","Network 5","District","Traditional","ES","PK, K, 1, 2, 3, 4, 5, 6, 7, 8","PK-8","Attendance Area School","K, 1, 2, 3, 4, 5, 6, 7, 8","K-8",41.85266349,-87.71247015,"(773)534-1680","5","NORTH LAWNDALE","24",609873
"262","OPEN","609874","Dirksen ES","DIRKSEN","Everett McKinley Dirksen Elementary School","8601 W FOSTER AVE","60656","Network 1","District","Traditional","ES","PK, K, 1, 2, 3, 4, 5, 6, 7, 8","PK-8","Attendance Area School","K, 1, 2, 3, 4, 5, 6, 7, 8","K-8",41.97371478,-87.84104144,"(773)534-1090","1","OHARE","41",609874
"263","OPEN","609875","Darwin ES","DARWIN","Charles R Darwin Elementary School","3116 W BELDEN AVE","60647","ISP","District","Traditional","ES","PK, K, 1, 2, 3, 4, 5, 6, 7, 8","PK-8","Attendance Area School","K, 1, 2, 3, 4, 5, 6, 7, 8","K-8",41.92332272,-87.70541291,"(773)534-4110","4","LOGAN SQUARE","32",609875
"264","OPEN","609876","Nathan Davis ES","DAVIS N","Nathan S Davis Elementary School","3014 W 39TH PL","60632","Network 8","District","Traditional","ES","PK, K, 1, 2, 3, 4, 5, 6, 7, 8","PK-8","Attendance Area School","K, 1, 2, 3, 4, 5, 6, 7, 8","K-8",41.82185161,-87.70020216,"(773)535-4540","8","BRIGHTON PARK","12",609876
"265","OPEN","609879","Dawes ES","DAWES","Charles Gates Dawes Elementary School","3810 W 81ST PL","60652","Network 10","District","Traditional","ES","PK, K, 1, 2, 3, 4, 5, 6, 7, 8","PK-8","Attendance Area School","K, 1, 2, 3, 4, 5, 6, 7, 8","K-8",41.74507775,-87.71735342,"(773)535-2350","10","ASHBURN","18",609879
"266","OPEN","609880","Decatur Classical ES","DECATUR","Stephen Decatur Classical Elementary School","7030 N SACRAMENTO AVE","60645","Network 2","District","Traditional","ES","K, 1, 2, 3, 4, 5, 6","K-6","Citywide",,,42.00928856,-87.70461859,"(773)534-2201","2","WEST RIDGE","50",609880
"267","OPEN","609883","Deneen ES","DENEEN","Charles S Deneen Elementary School","7240 S WABASH AVE","60619","AUSL","District","Traditional","ES","PK, K, 1, 2, 3, 4, 5, 6, 7, 8","PK-8","Attendance Area School","K, 1, 2, 3, 4, 5, 6, 7, 8","K-8",41.76249026,-87.62334459,"(773)535-3035","12","GREATER GRAND CROSSING","6",609883
"268","OPEN","609884","Dever ES","DEVER","William E Dever Elementary School","3436 N OSCEOLA AVE","60634","Network 1","District","Traditional","ES","PK, K, 1, 2, 3, 4, 5, 6, 7, 8","PK-8","Attendance Area School","K, 1, 2, 3, 4, 5, 6, 7, 8","K-8",41.94255167,-87.81313153,"(773)534-3090","1","DUNNING","38",609884
"269","OPEN","609885","Dewey ES Academy","DEWEY","Dewey Elementary Academy of Fine Arts","5415 S UNION AVE","60609","AUSL","District","Traditional","ES","PK, K, 1, 2, 3, 4, 5, 6, 7, 8","PK-8","Attendance Area School","K, 1, 2, 3, 4, 5, 6, 7, 8","K-8",41.79564568,-87.64265158,"(773)535-1666","11","NEW CITY","20",609885
"270","OPEN","609887","Dixon ES","DIXON","Arthur Dixon Elementary School","8306 S SAINT LAWRENCE AVE","60619","Network 12","District","Traditional","ES","PK, K, 1, 2, 3, 4, 5, 6, 7, 8","PK-8","Attendance Area School","K, 1, 2, 3, 4, 5, 6, 7, 8","K-8",41.74366924,-87.60997887,"(773)535-3834","12","CHATHAM","6",609887
"271","OPEN","609891","Doolittle ES","DOOLITTLE","James R Doolittle Jr Elementary School","535 E 35TH ST","60616","Network 9","District","Traditional","ES","PK, K, 1, 2, 3, 4, 5, 6, 7, 8","PK-8","Attendance Area School","K, 1, 2, 3, 4, 5, 6, 7, 8","K-8",41.83112063,-87.61227454,"(773)535-1040","9","DOUGLAS","4",609891
"272","OPEN","609893","Dore ES","DORE","John C Dore Elementary School","6108 S NATOMA AVE","60638","Network 10","District","Traditional","ES","PK, K, 1, 2, 3, 4, 5, 6, 7, 8","PK-8","Attendance Area School","K, 1, 2, 3, 4, 5, 6, 7, 8","K-8",41.78095446,-87.78760442,"(773)535-2080","10","CLEARING","13",609893
"273","OPEN","609894","Drake ES","DRAKE","John B Drake Elementary School","2710 S DEARBORN ST","60616","Network 9","District","Traditional","ES","PK, K, 1, 2, 3, 4, 5, 6, 7, 8","PK-8","Attendance Area School","K, 1, 2, 3, 4, 5, 6, 7, 8","K-8",41.84404331,-87.62855345,"(773)534-9129","9","DOUGLAS","3",609894
"274","OPEN","609895","Turner-Drew Elem Academy","TURNER-DREW","Turner-Drew Elementary Language Academy","9300 S PRINCETON AVE","60620","Network 11","District","Traditional","ES","K, 1, 2, 3, 4, 5, 6, 7, 8","K-8","Citywide",,,41.72560922,-87.63016448,"(773)535-5720","11","ROSELAND","21",609895
"275","OPEN","609896","Drummond ES","DRUMMOND","Thomas Drummond Elementary School","1845 W CORTLAND ST","60622","Network 6","District","Traditional","ES","PK, K, 1, 2, 3, 4, 5, 6, 7, 8","PK-8","Citywide",,,41.9159138,-87.6744946,"(773)534-4120","6","LOGAN SQUARE","32",609896
"276","OPEN","609897","Earle ES","EARLE","Charles W Earle Elementary School","2040 W 62ND ST","60636","Network 11","District","Traditional","ES","PK, K, 1, 2, 3, 4, 5, 6, 7, 8","PK-8","Attendance Area School","K, 1, 2, 3, 4, 5, 6, 7, 8","K-8",41.78122517,-87.67554666,"(773)535-9130","11","WEST ENGLEWOOD","16",609897
"277","OPEN","609898","Eberhart ES","EBERHART","John F Eberhart Elementary School","3400 W 65TH PL","60629","ISP","District","Traditional","ES","K, 1, 2, 3, 4, 5, 6, 7, 8","K-8","Attendance Area School","K, 1, 2, 3, 4, 5, 6, 7, 8","K-8",41.77442045,-87.70795263,"(773)535-9190","10","CHICAGO LAWN","23",609898
"278","OPEN","609899","Christian Ebinger ES","EBINGER","Christian Ebinger Elementary School","7350 W PRATT AVE","60631","ISP","District","Traditional","ES","K, 1, 2, 3, 4, 5, 6, 7, 8","K-8","Attendance Area School","K, 1, 2, 3, 4, 5, 6, 7, 8","K-8",42.00440792,-87.81116978,"(773)534-1070","1","EDISON PARK","41",609899
"279","OPEN","609900","Curtis ES","CURTIS","George W Curtis Elementary School","32 E 115TH ST","60628","AUSL","District","Traditional","ES","PK, K, 1, 2, 3, 4, 5, 6, 7, 8","PK-8","Attendance Area School","K, 1, 2, 3, 4, 5, 6, 7, 8","K-8",41.6854184,-87.62165261,"(773)535-5050","13","ROSELAND","9",609900
"280","OPEN","609901","Edgebrook ES","EDGEBROOK","Edgebrook Elementary School","6525 N HIAWATHA AVE","60646","Network 1","District","Traditional","ES","K, 1, 2, 3, 4, 5, 6, 7, 8","K-8","Attendance Area School","K, 1, 2, 3, 4, 5, 6, 7, 8","K-8",41.99943683,-87.76184047,"(773)534-1194","1","FOREST GLEN","41",609901
"281","OPEN","609902","Metcalfe Elem Academy","METCALFE","Ralph H Metcalfe Elementary Community Academy","12339 S NORMAL AVE","60628","Network 13","District","Traditional","ES","PK, K, 1, 2, 3, 4, 5, 6, 7, 8","PK-8","Attendance Area School","K, 1, 2, 3, 4, 5, 6, 7, 8","K-8",41.66944402,-87.63430552,"(773)535-5590","13","WEST PULLMAN","34",609902
"282","OPEN","609903","Edwards ES","EDWARDS","Richard Edwards Elementary School","4815 S KARLOV AVE","60632","ISP","District","Traditional","ES","PK, K, 1, 2, 3, 4, 5, 6, 7, 8","PK-8","Attendance Area School","K, 1, 2, 3, 4, 5, 6, 7, 8","K-8",41.80554154,-87.72585618,"(773)535-4875","8","ARCHER HEIGHTS","14",609903
"283","OPEN","609904","Ellington ES","ELLINGTON","Edward K Ellington Elementary School","243 N PARKSIDE AVE","60644","Network 3","District","Traditional","ES","PK, K, 1, 2, 3, 4, 5, 6, 7, 8","PK-8","Attendance Area School","K, 1, 2, 3, 4, 5, 6, 7, 8","K-8",41.88552958,-87.76658938,"(773)534-6361","3","AUSTIN","29",609904
"284","OPEN","609907","Ericson Elem Academy","ERICSON","Leif Ericson Elementary Scholastic Academy","3600 W 5TH AVE","60624","Network 5","District","Traditional","ES","PK, K, 1, 2, 3, 4, 5, 6, 7, 8","PK-8","Citywide",,,41.87574412,-87.71580443,"(773)534-6660","5","EAST GARFIELD PARK","28",609907
"285","OPEN","609908","Esmond ES","ESMOND","Esmond Elementary School","1865 W MONTVALE AVE","60643","Network 10","District","Traditional","ES","PK, K, 1, 2, 3, 4, 5, 6, 7, 8","PK-8","Attendance Area School","K, 1, 2, 3, 4, 5, 6, 7, 8","K-8",41.68941961,-87.66915867,"(773)535-2650","10","MORGAN PARK","19",609908
"286","OPEN","609909","Everett ES","EVERETT","Edward Everett Elementary School","3419 S BELL AVE","60608","Network 8","District","Traditional","ES","PK, K, 1, 2, 3, 4, 5","PK-5","Attendance Area School","K, 1, 2, 3, 4, 5","K-5",41.83155516,-87.6813103,"(773)535-4550","8","MCKINLEY PARK","12",609909
"287","OPEN","609910","Falconer ES","FALCONER","Laughlin Falconer Elementary School","3020 N LAMON AVE","60641","Network 3","District","Traditional","ES","PK, K, 1, 2, 3, 4, 5, 6","PK-6","Attendance Area School","K, 1, 2, 3, 4, 5, 6","K-6",41.93578457,-87.74933063,"(773)534-3560","3","BELMONT CRAGIN","31",609910
"288","OPEN","609912","Farnsworth ES","FARNSWORTH","James B Farnsworth Elementary School","5414 N LINDER AVE","60630","Network 1","District","Traditional","ES","PK, K, 1, 2, 3, 4, 5, 6, 7, 8","PK-8","Attendance Area School","K, 1, 2, 3, 4, 5, 6, 7, 8","K-8",41.97979006,-87.76607166,"(773)534-3535","1","JEFFERSON PARK","45",609912
"289","OPEN","609917","Fernwood ES","FERNWOOD","Fernwood Elementary School","10041 S UNION AVE","60628","Network 13","District","Traditional","ES","PK, K, 1, 2, 3, 4, 5, 6, 7, 8","PK-8","Attendance Area School","K, 1, 2, 3, 4, 5, 6, 7, 8","K-8",41.71118362,-87.64041365,"(773)535-2700","13","WASHINGTON HEIGHTS","34",609917
"290","OPEN","609918","Field ES","FIELD","Eugene Field Elementary School","7019 N ASHLAND AVE","60626","Network 2","District","Traditional","ES","5, 6, 7, 8","5-8","Attendance Area School","5, 6, 7, 8","5-8",42.00966386,-87.6699854,"(773)534-2030","2","ROGERS PARK","49",609918
"291","OPEN","609919","Fiske ES","FISKE","John Fiske Elementary School","6020 S LANGLEY AVE","60637","Network 9","District","Traditional","ES","PK, K, 1, 2, 3, 4, 5, 6, 7, 8","PK-8","Attendance Area School","K, 1, 2, 3, 4, 5, 6, 7, 8","K-8",41.78518282,-87.6086329,"(773)535-0990","9","WOODLAWN","20",609919
"292","OPEN","609920","Kanoon Magnet","KANOON","Gerald Delgado Kanoon Elementary Magnet School","2233 S KEDZIE AVE","60623","Network 7","District","Traditional","ES","PK, K, 1, 2, 3, 4, 5, 6, 7, 8","PK-8","Attendance Area School","K, 1, 2, 3, 4, 5, 6, 7, 8","K-8",41.85077148,-87.70511208,"(773)534-1736","7","SOUTH LAWNDALE","12",609920
"293","OPEN","609921","Telpochcalli ES","TELPOCHCALLI","Telpochcalli Elementary School","2832 W 24TH BLVD","60623","Network 7","District","Traditional","ES","PK, K, 1, 2, 3, 4, 5, 6, 7, 8","PK-8","Attendance Area School","K, 1, 2, 3, 4, 5, 6, 7, 8","K-8",41.84794743,-87.69600588,"(773)534-1402","7","SOUTH LAWNDALE","12",609921
"294","OPEN","609922","Belmont-Cragin ES","BELMONT-CRAGIN","Belmont-Cragin Elementary School","5252 W PALMER ST","60639","ISP","District","Traditional","ES","PK, K, 1, 2, 3, 4, 5, 6, 7, 8","PK-8","Citywide",,,41.92160396,-87.75795257,"(773)534-2900","3","BELMONT CRAGIN","36",609922
"295","OPEN","609924","Fort Dearborn ES","FORT DEARBORN","Fort Dearborn Elementary School","9025 S THROOP ST","60620","Network 11","District","Traditional","ES","PK, K, 1, 2, 3, 4, 5, 6, 7, 8","PK-8","Attendance Area School","K, 1, 2, 3, 4, 5, 6, 7, 8","K-8",41.72967267,-87.65548116,"(773)535-2680","11","WASHINGTON HEIGHTS","21",609924
"296","OPEN","609925","Kellman Corp ES","KELLMAN","Joseph Kellman Corporate Community ES","3030 W ARTHINGTON ST","60612","Network 5","District","Traditional","ES","PK, K, 1, 2, 3, 4, 5, 6, 7, 8","PK-8","Citywide",,,41.87016772,-87.7021629,"(773)534-6602","5","EAST GARFIELD PARK","28",609925
"297","OPEN","609926","Franklin ES","FRANKLIN","Franklin Elementary Fine Arts Center","225 W EVERGREEN AVE","60610","ISP","District","Traditional","ES","K, 1, 2, 3, 4, 5, 6, 7, 8","K-8","Citywide",,,41.90659999,-87.63551281,"(773)534-8510","4","NEAR NORTH SIDE","27",609926
"298","OPEN","609927","Foster Park ES","FOSTER PARK","Foster Park Elementary School","8530 S WOOD ST","60620","Network 11","District","Traditional","ES","PK, K, 1, 2, 3, 4, 5, 6, 7, 8","PK-8","Attendance Area School","K, 1, 2, 3, 4, 5, 6, 7, 8","K-8",41.73842548,-87.66809931,"(773)535-2725","11","AUBURN GRESHAM","21",609927
"299","OPEN","609928","Fuller ES","FULLER","Melville W Fuller Elementary School","4214 S ST LAWRENCE AVE","60653","AUSL","District","Traditional","ES","PK, K, 1, 2, 3, 4, 5, 6, 7, 8","PK-8","Attendance Area School","K, 1, 2, 3, 4, 5, 6, 7, 8","K-8",41.8180034,-87.61178404,"(773)535-1687","9","GRAND BOULEVARD","4",609928
"300","OPEN","609929","Fulton ES","FULTON","Robert Fulton Elementary School","5300 S HERMITAGE AVE","60609","Network 11","District","Traditional","ES","PK, K, 1, 2, 3, 4, 5, 6, 7, 8","PK-8","Attendance Area School","K, 1, 2, 3, 4, 5, 6, 7, 8","K-8",41.79758027,-87.66843588,"(773)535-9000","11","NEW CITY","16",609929
"301","OPEN","609930","Funston ES","FUNSTON","Frederick Funston Elementary School","2010 N CENTRAL PARK AVE","60647","Network 4","District","Traditional","ES","PK, K, 1, 2, 3, 4, 5, 6, 7, 8","PK-8","Attendance Area School","K, 1, 2, 3, 4, 5, 6, 7, 8","K-8",41.91761651,-87.71689166,"(773)534-4125","4","LOGAN SQUARE","26",609930
"302","OPEN","609933","Gale Elem Academy","GALE","Stephen F Gale Elementary Community Academy","1631 W JONQUIL TER","60626","Network 2","District","Traditional","ES","PK, K, 1, 2, 3, 4, 5, 6, 7, 8","PK-8","Attendance Area School","K, 1, 2, 3, 4, 5, 6, 7, 8","K-8",42.02109056,-87.67193898,"(773)534-2100","2","ROGERS PARK","49",609933
"303","OPEN","609935","Gallistel Academy","GALLISTEL","Matthew Gallistel Elementary Language Academy","10347 S EWING AVE","60617","Network 13","District","Traditional","ES","PK, K, 1, 2, 3, 4, 5, 6, 7, 8","PK-8","Attendance Area School","K, 1, 2, 3, 4, 5, 6, 7, 8","K-8",41.706801,-87.53517531,"(773)535-6540","13","EAST SIDE","10",609935
"304","OPEN","609937","John W Garvy ES","GARVY","John W Garvy Elementary School","5225 N OAK PARK AVE","60656","Network 1","District","Traditional","ES","K, 1, 2, 3, 4, 5, 6, 7, 8","K-8","Attendance Area School","K, 1, 2, 3, 4, 5, 6, 7, 8","K-8",41.97635166,-87.79623511,"(773)534-1185","1","NORWOOD PARK","41",609937
"305","OPEN","609938","Gary ES","GARY","Joseph E Gary Elementary School","3740 W 31ST ST","60623","Network 7","District","Traditional","ES","PK, 3, 4, 5, 6, 7, 8","PK, 3-8","Attendance Area School","3, 4, 5, 6, 7, 8","3-8",41.83706515,-87.71869664,"(773)534-1455","7","SOUTH LAWNDALE","22",609938
"306","OPEN","609939","Gillespie ES","GILLESPIE","Frank L Gillespie Elementary School","9301 S STATE ST","60619","ISP","District","Traditional","ES","PK, K, 1, 2, 3, 4, 5, 6, 7, 8","PK-8","Attendance Area School","K, 1, 2, 3, 4, 5, 6, 7, 8","K-8",41.72533228,-87.62371944,"(773)535-5065","12","ROSELAND","9",609939
"307","OPEN","609941","Randolph ES","RANDOLPH","Asa Philip Randolph Elementary School","7316 S HOYNE AVE","60636","Network 11","District","Traditional","ES","PK, K, 1, 2, 3, 4, 5, 6, 7, 8","PK-8","Attendance Area School","K, 1, 2, 3, 4, 5, 6, 7, 8","K-8",41.76061413,-87.67596551,"(773)535-9015","11","WEST ENGLEWOOD","17",609941
"308","OPEN","609942","Goethe ES","GOETHE","Johann W von Goethe Elementary School","2236 N ROCKWELL ST","60647","Network 4","District","Traditional","ES","PK, K, 1, 2, 3, 4, 5, 6, 7, 8","PK-8","Attendance Area School","K, 1, 2, 3, 4, 5, 6, 7, 8","K-8",41.92283101,-87.6928997,"(773)534-4135","4","LOGAN SQUARE","1",609942
"309","OPEN","609943","Owens Elem Academy","OWENS","Jesse Owens Elementary Community Academy","12302 S STATE ST","60628","Network 13","District","Traditional","ES","PK, K, 1, 2, 3, 4, 5, 6, 7, 8","PK-8","Attendance Area School","K, 1, 2, 3, 4, 5, 6, 7, 8","K-8",41.67061754,-87.62254566,"(773)535-5475","13","WEST PULLMAN","9",609943
"310","OPEN","609944","Grissom ES","GRISSOM","Virgil Grissom Elementary School","12810 S ESCANABA AVE","60633","ISP","District","Traditional","ES","PK, K, 1, 2, 3, 4, 5, 6, 7, 8","PK-8","Attendance Area School","K, 1, 2, 3, 4, 5, 6, 7, 8","K-8",41.662481,-87.55330671,"(773)535-5380","13","HEGEWISCH","10",609944
"311","OPEN","609945","Goudy ES","GOUDY","William C. Goudy Technology Academy","5120 N WINTHROP AVE","60640","ISP","District","Traditional","ES","PK, K, 1, 2, 3, 4, 5, 6, 7, 8","PK-8","Attendance Area School","K, 1, 2, 3, 4, 5, 6, 7, 8","K-8",41.97581653,-87.65791249,"(773)534-2480","2","UPTOWN","48",609945
"312","OPEN","609947","Alexander Graham ES","GRAHAM ES","Alexander Graham Elementary School","4436 S UNION AVE","60609","Network 6","District","Specialty","ES","PK, K, 1, 2, 3, 4, 5, 6, 7, 8","PK-8","Attendance Area School","K, 1, 2, 3, 4, 5, 6, 7, 8","K-8",41.81330373,-87.64334424,"(773)535-1308","6","NEW CITY","11",609947
"313","OPEN","609949","Gray ES","GRAY","William P Gray Elementary School","3730 N LARAMIE AVE","60641","Network 1","District","Traditional","ES","PK, K, 1, 2, 3, 4, 5, 6, 7, 8","PK-8","Attendance Area School","K, 1, 2, 3, 4, 5, 6, 7, 8","K-8",41.94876358,-87.7571156,"(773)534-3520","1","PORTAGE PARK","45",609949
"314","OPEN","609950","Ortiz De Dominguez ES","ORTIZ DE DOMINGUEZ","Josefa Ortiz De Dominguez Elementary School","3000 S LAWNDALE AVE","60623","Network 7","District","Traditional","ES","PK, K, 1, 2","PK-2","Attendance Area School","K, 1, 2","K-2",41.83879052,-87.71719032,"(773)534-1600","7","SOUTH LAWNDALE","22",609950
"315","OPEN","609951","Ariel Elem Academy","ARIEL","Ariel Elementary Community Academy","1119 E 46TH ST","60653","ISP","District","Traditional","ES","PK, K, 1, 2, 3, 4, 5, 6, 7, 8","PK-8","Citywide",,,41.81117346,-87.59750293,"(773)535-1996","9","KENWOOD","4",609951
"316","OPEN","609952","Nathanael Greene ES","GREENE","Nathanael Greene Elementary School","3525 S HONORE ST","60609","Network 8","District","Traditional","ES","PK, K, 1, 2, 3, 4, 5","PK-5","Attendance Area School","K, 1, 2, 3, 4, 5","K-5",41.82966928,-87.67149237,"(773)535-4560","8","MCKINLEY PARK","12",609952
"317","OPEN","609954","Gregory ES","GREGORY","John Milton Gregory Elementary School","3715 W POLK ST","60624","Network 5","District","Traditional","ES","PK, K, 1, 2, 3, 4, 5, 6, 7, 8","PK-8","Attendance Area School","K, 1, 2, 3, 4, 5, 6, 7, 8","K-8",41.87074216,-87.71866613,"(773)534-6820","5","EAST GARFIELD PARK","24",609954
"318","OPEN","609955","Gresham ES","GRESHAM","Walter Q Gresham Elementary School of Excellence","8524 S GREEN ST","60620","AUSL","District","Traditional","ES","PK, K, 1, 2, 3, 4, 5, 6, 7, 8","PK-8","Attendance Area School","K, 1, 2, 3, 4, 5, 6, 7, 8","K-8",41.73892016,-87.64502524,"(773)535-3350","11","AUBURN GRESHAM","21",609955
"319","OPEN","609956","Grimes ES","GRIMES","Robert L Grimes Elementary School","5450 W 64TH PL","60638","Network 10","District","Traditional","ES","PK, K, 1, 2, 3, 4, 5, 6, 7, 8","PK-8","Attendance Area School","K, 1, 2, 3, 4, 5, 6, 7, 8","K-8",41.77546426,-87.75880329,"(773)535-2364","10","CLEARING","13",609956
"320","OPEN","609958","Gunsaulus Elem Academy","GUNSAULUS","Frank W Gunsaulus Elementary Scholastic Academy","4420 S SACRAMENTO AVE","60632","ISP","District","Traditional","ES","PK, K, 1, 2, 3, 4, 5, 6, 7, 8","PK-8","Citywide",,,41.81300737,-87.69936419,"(773)535-7215","8","BRIGHTON PARK","15",609958
"321","OPEN","609959","John Haines ES","HAINES","John Charles Haines Elementary School","247 W 23RD PL","60616","Network 6","District","Traditional","ES","PK, K, 1, 2, 3, 4, 5, 6, 7, 8","PK-8","Attendance Area School","K, 1, 2, 3, 4, 5, 6, 7, 8","K-8",41.84995832,-87.63380633,"(773)534-9200","6","ARMOUR SQUARE","25",609959
"322","OPEN","609960","Hale ES","HALE","Nathan Hale Elementary School","6140 S MELVINA AVE","60638","Network 10","District","Traditional","ES","K, 1, 2, 3, 4, 5, 6, 7, 8","K-8","Attendance Area School","K, 1, 2, 3, 4, 5, 6, 7, 8","K-8",41.78019173,-87.77657871,"(773)535-2265","10","CLEARING","13",609960
"323","OPEN","609961","Ninos Heroes ES","NINOS HEROES","Ninos Heroes Elementary Academic Center","8344 S COMMERCIAL AVE","60617","Network 12","District","Traditional","ES","PK, K, 1, 2, 3, 4, 5, 6, 7, 8","PK-8","Attendance Area School","K, 1, 2, 3, 4, 5, 6, 7, 8","K-8",41.74375308,-87.55186172,"(773)535-6694","12","SOUTH CHICAGO","7",609961
